ID,LocationName,LocationType,ParentLocationName,Latitude,Longitude,Address,Area,Region,PostalCode,CountryCode,Radius,KnownFlag,Polygon,UpdateTime,DisplayName,Indoor,CustomerName,OrganizationId,TypeId,CreateTime,Description,polygonId,CellFlag
136968,AEZXH-TJB,,,25.02182696040998,55.04360361408004,Jebel Ali Freezone,Dubai,Dubai,,AE,0,1,"25.021827,55.043604,25.026634,55.072058,25.023216,55.073561,25.020104,55.070525,25.016492,55.049767,25.019132,55.048816,25.020021,55.046363,25.019493,55.044156,25.021827,55.043604",2024-01-10 07:39:00,AEZXH-TJB,0,ZIM,18,21,2024-01-10 07:39:00,"Utd.Arab Emir., JEBEL ALI, DPW JEBEL ALI - TERMINAL 2",NULL,NULL
136969,AEZXH-TJC,,,24.997425236539982,55.04847596578546,Jebel Ali Freezone,Dubai,Dubai,,AE,0,1,"24.997425,55.048476,24.981335,55.054790,24.980629,55.053150,24.981149,55.050321,24.991703,55.044991,24.991145,55.043146,24.994341,55.042859,24.997425,55.048476",2024-01-10 07:41:00,AEZXH-TJC,0,ZIM,18,21,2024-01-10 07:41:00,"Utd.Arab Emir., JEBEL ALI, DPW JEBEL ALI - TERMINAL 3",NULL,NULL
136970,AEZXH-TJD,,,25.034367935361544,55.0387200378116,,دبي,AE,,AE,0,1,"25.034368,55.038720,25.038083,55.060654,25.032659,55.060859,25.029204,55.041344,25.034368,55.038720",2024-01-10 07:42:00,AEZXH-TJD,0,ZIM,18,21,2024-01-10 07:42:00,"Utd.Arab Emir., JEBEL ALI, DPW JEBEL ALI - TERMINAL 4",NULL,NULL
1561134,AGSJH-TSJ,,,17.12610336635919,-61.85255566251989,Church St,St John's,Saint John,,AG,0,1,"17.126103,-61.852556,17.124885,-61.852716,17.125136,-61.853972,17.124964,-61.854081,17.124976,-61.854305,17.124872,-61.854350,17.125589,-61.857753,17.126226,-61.857618,17.125944,-61.856510,17.125987,-61.856241,17.125730,-61.854747,17.126103,-61.852556",2024-10-10 13:17:00,AGSJH-TSJ,0,,18,21,2024-10-10 13:17:00,"ANTIGUA AND BARBUDA, ST. JOHN`S (ANTIGUA ISLAND), ST. JOHNS TERMINAL",NULL,0
1366270,ALDRR-TDR,,,41.31535659274189,19.452523661463005,,Durrës,Durrës County,,AL,0,1,"41.315357,19.452524,41.315002,19.453679,41.307214,19.449374,41.302382,19.454492,41.302284,19.452445,41.306878,19.447143,41.315357,19.452524",2024-08-13 13:08:00,ALDRR-TDR,0,,18,21,2024-08-13 13:08:00,"ALBANIA, DURRES, DURRES TERMINAL",NULL,0
213080,ARBUE-DGL,,,-34.578108475266376,-58.39438701656809,1664 Padre Carlos Mugica,CABA,Cdad. Autónoma de Buenos Aires,C1425,AR,0,1,"-34.578108,-58.394387,-34.578314,-58.394377,-34.579987,-58.390896,-34.578413,-58.390486,-34.578503,-58.391995,-34.578108,-58.394387",2024-03-31 13:23:00,ARBUE-DGL,0,,18,12,2024-03-31 13:23:00,"ARGENTINA, BUENOS AIRES, GAMMA LOGISTICA DEPOT",NULL,NULL
1620344,ARBUE-DGL2,,,-34.58504506643458,-58.384680207456256,1300 Padre Carlos Mugica,CABA,Cdad. Autónoma de Buenos Aires,,AR,0,1,"-34.585045,-58.384680,-34.587200,-58.381000,-34.588003,-58.381800,-34.587979,-58.382600,-34.586602,-58.384695,-34.584279,-58.385887,-34.585045,-58.384680",2024-12-01 10:39:00,ARBUE-DGL2,0,,18,12,2024-12-01 10:39:00,"ARGENTINA, BUENOS AIRES, GAMMA LOGISTICA DEPOT",NULL,0
127736,ARBUE-DHP,,,-34.660257,-58.339173,70 Campana,Dock Sud,Provincia de Buenos Aires,,AR,0,1,"-34.660257,-58.339173,-34.660316,-58.334991,-34.662540,-58.335346,-34.662507,-58.339288,-34.663428,-58.339526,-34.663713,-58.340804,-34.665103,-58.341053,-34.665097,-58.342626,-34.663658,-58.342496,-34.663639,-58.341048,-34.663349,-58.339663,-34.660257,-58.339173",2024-09-17 12:34:00,ARBUE-DHP,0,ZIM,18,12,2024-01-01 06:53:00,"Argentina, Buenos Aires, Hiperbaires (ICB) S.R.L.",NULL,NULL
144561,ARBUE-DHP2,,,-34.749738,-58.186322,6937 Almte Brown,Berazategui,Provincia de Buenos Aires,B1880,AR,0,1,"-34.749738,-58.186322,-34.752364,-58.182578,-34.754105,-58.184527,-34.751405,-58.188010,-34.749738,-58.186322",2024-09-29 12:33:00,ARBUE-DHP2,0,ZIM,18,12,2024-01-23 15:04:00,"ARGENTINA, BUENOS AIRES, Hiperbaires (ICB) S.R.L.",NULL,NULL
136956,ARBUE-TAP,,,-34.578679,-58.374343,,CABA,,,AR,0,1,"-34.578679,-58.374343,-34.578171,-58.367815,-34.579717,-58.365347,-34.580159,-58.365221,-34.580630,-58.371052,-34.581755,-58.368946,-34.582408,-58.371156,-34.580423,-58.374537,-34.579235,-58.373600,-34.578679,-58.374343",2024-08-14 06:13:00,ARBUE-TAP,0,ZIM,18,21,2024-01-10 07:22:00,"ARGENTINA, BUENOS AIRES, APM TERMINALS",NULL,NULL
142158,ARBUE-TEX,,,-34.63559587028769,-58.348805934674914,,Dock Sud,Buenos Aires Province,,AR,0,1,"-34.635596,-58.348806,-34.639039,-58.352423,-34.642778,-58.350256,-34.646221,-58.342632,-34.646025,-58.341347,-34.640306,-58.344262,-34.635596,-58.348806",2024-01-14 13:06:00,ARBUE-TEX,0,ZIM,18,21,2024-01-14 13:06:00,"ARGENTINA, BUENOS AIRES, EXOLGAN TERMINAL",NULL,NULL
288711,AUBNE-DAC,,,-27.36869975074638,153.17975171728006,76 Port Dr,Port of Brisbane,QLD,4178,AU,0,1,"-27.368700,153.179752,-27.370750,153.183446,-27.372910,153.181937,-27.370928,153.178136,-27.368700,153.179752",2024-05-06 08:21:00,AUBNE-DAC,0,,18,12,2024-05-06 08:21:00,"AUSTRALIA, BRISBANE (QL), ACFS E-DEPOT",NULL,0
288707,AUBNE-DED,,,-27.364939034300733,153.18272646497024,15 Peregrine Dr,Port of Brisbane,QLD,4178,AU,0,1,"-27.364939,153.182726,-27.368159,153.188300,-27.371802,153.185689,-27.368545,153.180074,-27.364939,153.182726",2024-05-06 08:14:00,AUBNE-DED,0,,18,12,2024-05-06 08:14:00,"AUSTRALIA, BRISBANE (QL), ACFS E-LINK",NULL,0
1323171,AUBNE-DPC,,,-27.364037663159273,153.18102939874638,18 Peregrine Dr,Port of Brisbane,QLD,4178,AU,0,1,"-27.364038,153.181029,-27.364857,153.182513,-27.368588,153.179884,-27.367894,153.178662,-27.364038,153.181029",2024-08-08 10:31:00,AUBNE-DPC,0,,18,12,2024-08-08 10:31:00,"AUSTRALIA, BRISBANE (QL), PATRICK CARGOLINK BRISBANE",NULL,0
1308631,AUBNE-DTY,,,-27.4426798560039,153.13179524873476,1477 Lytton Rd,Hemmant,QLD,4174,AU,0,1,"-27.442680,153.131795,-27.444248,153.130013,-27.444816,153.133395,-27.443221,153.135224,-27.442680,153.131795",2024-08-06 14:34:00,AUBNE-DTY,0,,18,12,2024-08-06 14:34:00,"AUSTRALIA, BRISBANE (QL), TYNE CONTAINER SERVICES QLD",NULL,0
131653,AUBNE-TPA,,,-27.362161,153.177582,,Port of Brisbane,QLD,4178,AU,0,1,"-27.362161,153.177582,-27.364006,153.180960,-27.365183,153.180239,-27.367953,153.178451,-27.370293,153.176970,-27.368977,153.174791,-27.369976,153.174179,-27.369053,153.172698,-27.362161,153.177582",2024-08-08 10:30:00,AUBNE-TPA,0,ZIM,18,21,2024-01-04 09:56:00,"AUSTRALIA, BRISBANE (QL), PATRICK TERMINAL",NULL,NULL
131654,AUBNE-TPO,,,-27.369360640025747,153.1725306728767,Port Dr,Port of Brisbane,QLD,4178,AU,0,1,"-27.369361,153.172531,-27.371529,153.176293,-27.378315,153.171444,-27.376012,153.167857,-27.369361,153.172531",2024-01-04 09:57:00,AUBNE-TPO,0,ZIM,18,21,2024-01-04 09:57:00,"AUSTRALIA, BRISBANE (QL), DP WORLD - FISHERMAN ISLANDS CNTR TML",NULL,NULL
1323221,AUFTL-DPC,,,-32.04643041118942,115.73798216753511,17 Rous Head Rd,North Fremantle,WA,6159,AU,0,1,"-32.046430,115.737982,-32.043278,115.741271,-32.043456,115.741843,-32.039989,115.745808,-32.038654,115.745092,-32.044750,115.738770,-32.046430,115.737982",2024-08-08 10:43:00,AUFTL-DPC,0,,18,12,2024-08-08 10:43:00,"AUSTRALIA, FREMANTLE (WA), PATRICK CARGOLINK FREMANTLE",NULL,0
128403,AUFTL-TDP,,,-32.04741471627988,115.73734020872025,17 Rous Head Rd,North Fremantle,WA,6159,AU,0,1,"-32.047415,115.737340,-32.040104,115.745980,-32.039306,115.749243,-32.049475,115.739082,-32.048438,115.737617,-32.047415,115.737340",2024-08-08 10:38:00,AUFTL-TDP,0,ZIM,18,21,2024-01-02 08:50:00,"AUSTRALIA, FREMANTLE (WA), DPW TERMINAL FREMANTLE",NULL,NULL
1323203,AUFTL-TPA,,,-32.045343277894005,115.73364127651126,31 Kooringa Pl,North Fremantle,WA,6159,AU,0,1,"-32.045343,115.733641,-32.045383,115.735324,-32.042718,115.737814,-32.040895,115.735276,-32.044571,115.732951,-32.045343,115.733641",2024-08-08 10:41:00,AUFTL-TPA,0,,18,21,2024-08-08 10:41:00,"AUSTRALIA, FREMANTLE (WA), PATRICK TERMINAL FREMANTLE",NULL,0
1590114,AUMEL-DGF,,,-37.824207090968585,144.80280832689567,80 B Pipe Rd,Laverton North,VIC,3026,AU,0,1,"-37.824207,144.802808,-37.823840,144.804260,-37.825424,144.804895,-37.825772,144.803493,-37.824207,144.802808",2024-11-03 12:07:00,AUMEL-DGF,0,,18,12,2024-11-03 12:07:00,"AUSTRALIA, MELBOURNE (VI), GREATING FORTUNE CONTAINER SERVICES",NULL,0
272511,AUMEL-DPM,,,-37.83283,144.916347,37 Prohasky St,Port Melbourne,VIC,3207,AU,0,1,"-37.832830,144.916347,-37.832143,144.918397,-37.832507,144.918700,-37.833720,144.919048,-37.835912,144.919720,-37.835563,144.917217,-37.832830,144.916347",2024-05-16 06:19:00,AUMEL-DPM,0,,18,12,2024-04-30 06:49:00,"AUSTRALIA, MELBOURNE (VI), PORT MELBOURNE CONTAINERS",NULL,NULL
128187,AUMEL-DWD,,,-37.835098557,144.908823151,23 Webb Dock Dr,Port Melbourne,VIC,3207,AU,0,1,"-37.835099,144.908823,-37.838386,144.908480,-37.837624,144.913223,-37.834861,144.912193,-37.835099,144.908823",2024-01-01 15:06:00,AUMEL-DWD,0,ZIM,18,12,2024-01-01 15:06:00,"AUSTRALIA, MELBOURNE (VI),  ACFS WEBB DOCK",NULL,NULL
131174,AUMEL-TPA,,,-37.80932,144.915243,53 Coode Rd,West Melbourne,VIC,3003,AU,0,1,"-37.809320,144.915243,-37.810195,144.920436,-37.812018,144.920062,-37.812284,144.924965,-37.813944,144.924243,-37.815735,144.921658,-37.817863,144.915971,-37.817599,144.914317,-37.809320,144.915243",2024-05-19 11:41:00,AUMEL-TPA,0,ZIM,18,21,2024-01-04 08:47:00,"AUSTRALIA, MELBOURNE (VI), PATRICK TERMINAL - EAST SWANSON DOCK",NULL,NULL
128959,AUMEL-TVI,,,-37.83934278933018,144.91701155483568,90-98 Coode Rd,West Melbourne,VIC,3003,AU,0,1,"-37.839343,144.917012,-37.842115,144.913393,-37.847482,144.917545,-37.849599,144.910339,-37.838317,144.906530,-37.839343,144.917012",2024-01-02 12:55:00,AUMEL-TVI,0,ZIM,18,21,2024-01-02 12:13:00,"AUSTRALIA, Melbourne, VICTORIA INTERNATIONAL CONTAINER TML LTD",NULL,NULL
131173,AUMEL-TWS,,,-37.80950480041736,144.91243550385548,34-50 Coode Rd,West Melbourne,VIC,3003,AU,0,1,"-37.809505,144.912436,-37.809505,144.906479,-37.819521,144.906479,-37.819521,144.912436,-37.809505,144.912436",2024-01-04 08:45:00,AUMEL-TWS,0,ZIM,18,21,2024-01-04 08:45:00,"AUSTRALIA, MELBOURNE (VI), DP WORLD - WEST SWANSON CNTR TML",NULL,NULL
1323228,AUSYD-DDP,,,-33.96368135552389,151.22025235007908,1870W Botany Rd,Banksmeadow,NSW,2019,AU,0,1,"-33.963681,151.220252,-33.964585,151.219630,-33.967243,151.220844,-33.966237,151.224371,-33.964912,151.222856,-33.963681,151.220252",2024-08-08 10:46:00,AUSYD-DDP,0,,18,12,2024-08-08 10:46:00,"AUSTRALIA, SYDNEY (NS), DP WORLD AUSTRALIA CONTAINER PARKS",NULL,0
1323239,AUSYD-DE1,,,-33.97297914291554,151.2221062053846,55 Friendship Rd,Port Botany,NSW,2036,AU,0,1,"-33.972979,151.222106,-33.972313,151.224265,-33.974029,151.223948,-33.974695,151.221822,-33.972979,151.222106",2024-08-08 10:50:00,AUSYD-DE1,0,,18,12,2024-08-08 10:50:00,"AUSTRALIA, SYDNEY (NS), ACFS E-DEPOT 1- SYD",NULL,0
925010,AUSYD-DMC,,,-33.91615734064288,151.17495305829556,2B Canal Rd,St Peters,NSW,2044,AU,0,1,"-33.916157,151.174953,-33.917681,151.176412,-33.920287,151.172739,-33.920957,151.170405,-33.920786,151.168895,-33.916157,151.174953",2024-06-27 06:28:00,AUSYD-DMC,0,,18,12,2024-06-27 06:28:00,"AUSTRALIA, SYDNEY (NS), MARITIME CONTAINER SERVICES P/L",NULL,0
1502436,AUSYD-DPC,,,-33.964178315874975,151.21943111876044,1880 Botany Rd,Banksmeadow,NSW,2019,AU,0,1,"-33.964178,151.219431,-33.965112,151.219498,-33.967120,151.220305,-33.967496,151.218473,-33.967134,151.218389,-33.967009,151.218086,-33.966548,151.217918,-33.966660,151.217363,-33.965377,151.217162,-33.965280,151.218423,-33.964178,151.219431",2024-09-11 10:16:00,AUSYD-DPC,0,,18,12,2024-09-11 10:16:00,"AUSTRALIA, SYDNEY (NS), PATRICK CARGOLINK SYDNEY",NULL,0
1525311,AUSYD-DSW,,,-33.89200411330228,151.06832122073962,2 Roberts Rd,Greenacre,NSW,2190,AU,0,1,"-33.892004,151.068321,-33.891790,151.069611,-33.894270,151.071868,-33.899052,151.073867,-33.899802,151.072083,-33.896019,151.069890,-33.892004,151.068321",2024-09-15 12:00:00,AUSYD-DSW,0,,18,12,2024-09-15 12:00:00,"AUSTRALIA, SYDNEY (NS), SWIFT CONTAINER SERVICES PTY LTD",NULL,0
131168,AUSYD-THP,,,-33.959820536584594,151.19902736187692,Foreshore Rd,Banksmeadow,NSW,2019,AU,0,1,"-33.959821,151.199027,-33.959554,151.200911,-33.961815,151.204989,-33.966024,151.205820,-33.967146,151.200900,-33.959821,151.199027",2024-01-04 08:35:00,AUSYD-THP,0,ZIM,18,21,2024-01-04 08:35:00,"AUSTRALIA, SYDNEY (NS), HUTCHISON PORT HOLDING (HPH)",NULL,NULL
891578,AUSYD-TPA,,,-33.967198,151.201003,7 Penrhyn Road,Botany Bay,NSW,2019,AU,0,1,"-33.967198,151.201003,-33.963969,151.214362,-33.965265,151.216997,-33.966734,151.217264,-33.967317,151.218309,-33.971305,151.202049,-33.967198,151.201003",2024-09-11 10:14:00,AUSYD-TPA,0,,18,21,2024-06-24 13:07:00,"AUSTRALIA, SYDNEY (NS), PATRICK TERMINAL",NULL,0
142643,AWBAR-TBA,,,12.480293353105154,-69.99869193121673,Port of Barcadera,Oranjestad,AW,,AW,0,1,"12.480293,-69.998692,12.482524,-69.997601,12.481133,-69.994752,12.478915,-69.995946,12.480293,-69.998692",2024-01-16 14:54:00,AWBAR-TBA,0,ZIM,18,21,2024-01-16 14:54:00,"ARUBA, BARCADERA , BARCADERA MULTI CARGO SEA TERMINAL",NULL,NULL
1371382,BBBGI-TBT,,,13.107166,-59.630437,,Bridgetown,BB,,BB,0,1,"13.107166,-59.630437,13.108872,-59.627777,13.106080,-59.625977,13.102435,-59.624494,13.101203,-59.628271,13.107166,-59.630437",2024-09-17 12:37:00,BBBGI-TBT,0,,18,21,2024-08-14 06:33:00,"BARBADOS, BRIDGETOWN, BRIDGETOWN TERMINAL",NULL,0
195051,BEANR-DEU,,,51.27922200073746,4.38414395309718,NULL,Antwerpen,AN,NULL,BE,0,1,"51.279222,4.384144,51.276595,4.384348,51.275753,4.383573,51.275881,4.372198,51.279171,4.372239,51.279222,4.384144",2024-02-26 15:15:00,BEANR-DEU,0,ZIM,18,12,2024-02-26 15:15:00,"BELGIUM, ANTWERPEN, EUCORE DEPOT BVBA",NULL,NULL
129842,BEANR-DVC,,,51.294339,4.340083018903789,47 Muisbroeklaan,Antwerpen,Vlaams Gewest,2030,BE,0,1,"51.294339,4.340083,51.290315,4.350820,51.287608,4.352324,51.284237,4.348429,51.287029,4.346258,51.294339,4.340083",2024-01-03 09:32:00,BEANR-DVC,0,ZIM,18,12,2024-01-03 08:44:00,"BELGIUM, ANTWERPEN, DR DEPOT ANTWERP",NULL,NULL
130434,BEANR-T17,,,51.281076,4.237788,Sint-Antoniusweg,Beveren,Vlaams Gewest,9130,BE,0,1,"51.281076,4.237788,51.279163,4.241697,51.282591,4.248156,51.303703,4.269090,51.307033,4.262508,51.281076,4.237788",2024-12-03 14:02:00,BEANR-T17,0,ZIM,18,21,2024-01-03 12:40:00,"BELGIUM, ANTWERPEN, PSA DGD/MPET 1742 WEST",NULL,NULL
130431,BEANR-T86,,,51.344173,4.27223,2514 Oudedijkweg,Antwerpen,Vlaams Gewest,2040,BE,0,1,"51.344173,4.272230,51.343329,4.277786,51.341938,4.281675,51.339377,4.282778,51.333035,4.281904,51.334165,4.278243,51.343536,4.271273,51.344173,4.272230",2024-12-03 14:02:00,BEANR-T86,0,ZIM,18,21,2024-01-03 12:37:00,"BELGIUM, ANTWERPEN, EUROPATERMINAL 869",NULL,NULL
130428,BEANR-T91,,,51.358384,4.258612,601 Scheldelaan,Antwerpen,Vlaams Gewest,2040,BE,0,1,"51.358384,4.258612,51.353250,4.266805,51.352443,4.277637,51.347549,4.277802,51.353336,4.254021,51.356529,4.254708,51.358384,4.258612",2024-12-03 14:03:00,BEANR-T91,0,ZIM,18,21,2024-01-03 12:36:00,"BELGIUM, ANTWERPEN, NOORDZEETERMINAL 913",NULL,NULL
130411,BEANR-TME,,,51.295244,4.266389,7-9 Geslecht,Beveren,OV,9130,BE,0,1,"51.295244,4.266389,51.299838,4.273159,51.298078,4.275773,51.293743,4.269169,51.290581,4.271648,51.278232,4.262287,51.278622,4.255848,51.281260,4.251985,51.295244,4.266389",2024-01-11 13:44:00,BEANR-TME,0,ZIM,18,21,2024-01-03 12:16:00,"BELGIUM, Antwerp Port, 1718 MPET EAST",NULL,NULL
1254334,BEGBK-DBT,,,51.183936540138234,4.704179960851036,36 Industrieweg,Grobbendonk,Vlaams Gewest,2280,BE,0,1,"51.183937,4.704180,51.183611,4.707086,51.182518,4.706805,51.182796,4.704538,51.182628,4.704500,51.182729,4.703805,51.183937,4.704180",2024-07-30 13:13:00,BEGBK-DBT,0,,18,12,2024-07-30 13:13:00,"BELGIUM, GROBBENDONK, DLCT GROBBENDONK",NULL,0
1471932,BEREK-DCT,,,50.7780360772345,3.2025347330039153,1R Lar,Menen,Vlaams Gewest,8930,BE,0,1,"50.778036,3.202535,50.777324,3.203337,50.777915,3.204164,50.777767,3.204343,50.777286,3.203822,50.776571,3.202541,50.777510,3.201457,50.778036,3.202535",2024-09-05 11:37:00,BEREK-DCT,0,,18,12,2024-09-05 11:37:00,"BELGIUM, REKKEM, DELCATRANS (TRUCKER DEPOT)",NULL,0
1374972,BGVAR-DGB,,,43.20754341911252,27.645142888479466,,Povelyanovo,Varna,9160,BG,0,1,"43.207543,27.645143,43.207566,27.646039,43.206055,27.646221,43.206011,27.645488,43.207543,27.645143",2024-08-14 12:39:00,BGVAR-DGB,0,,18,12,2024-08-14 12:38:00,"BULGARIA, VARNA, GLOBAL",NULL,0
137636,BGVAR-TVA,,,43.18974067811891,27.64138849026861,Пat bez ime,Devnya,Varna,9162,BG,0,1,"43.189741,27.641388,43.195650,27.650150,43.194960,27.652974,43.193858,27.650624,43.191148,27.657710,43.189223,27.657400,43.189276,27.654504,43.191879,27.647673,43.190883,27.645396,43.189781,27.647691,43.187430,27.645778,43.189741,27.641388",2024-01-10 11:12:00,BGVAR-TVA,0,ZIM,18,21,2024-01-10 11:12:00,"BULGARIA, VARNA, VARNA WEST PORT",NULL,NULL
1544281,BJCOO-TSM,,,6.3438303103217155,2.4145674725192765,,Cotonou,Littoral Department,,BJ,0,1,"6.343830,2.414567,6.346226,2.414309,6.346296,2.415403,6.346115,2.415401,6.346481,2.418696,6.345041,2.418974,6.345414,2.423803,6.342279,2.424183,6.342526,2.422697,6.342548,2.421656,6.343119,2.421396,6.343001,2.419575,6.343830,2.414567",2024-10-29 13:47:00,BJCOO-TSM,0,,18,21,2024-09-26 08:06:00,"BENIN, COTONOU, BENIN TERMINAL",NULL,0
1380019,BMHMB-THB,,,32.292569,-64.781755,38 Front St,Hamilton,Pembroke Parish,,BM,0,1,"32.292569,-64.781755,32.291875,-64.781711,32.292305,-64.777326,32.293125,-64.777583,32.292703,-64.778722,32.292569,-64.781755",2024-08-19 07:00:00,BMHMB-THB,0,,18,21,2024-08-15 09:36:00,"BERMUDA, HAMILTON (BERMUDA), HAMILTON TERMINAL",NULL,0
128962,BRIGD-TTS,,,-22.928307,-43.839154,,Itaguaí,RJ,,BR,0,1,"-22.928307,-43.839154,-22.927485,-43.830129,-22.931987,-43.832928,-22.933381,-43.843731,-22.930390,-43.843754,-22.928307,-43.839154",2024-11-11 12:44:00,BRIGD-TTS,0,ZIM,18,21,2024-01-02 12:13:00,"BRAZIL, ITAGUAI (RJ), TECON SEPETIBA",NULL,NULL
1525047,BRIIP-DCO,,,-26.15524944269832,-48.622905716127576,3989 R. de Chao,Itapoá,SC,89249-000,BR,0,1,"-26.155249,-48.622906,-26.156540,-48.619108,-26.160860,-48.619780,-26.161050,-48.622391,-26.156623,-48.623196,-26.155249,-48.622906",2024-09-15 10:03:00,BRIIP-DCO,0,,18,12,2024-09-15 10:03:00,"BRAZIL, ITAPOA (SC), CONLOG ITAPOA",NULL,0
772145,BRIIP-DET,,,-26.146237,-48.620002,R. 2360 Guapiara,Itapoá,SC,89249-000,BR,0,1,"-26.146237,-48.620002,-26.146702,-48.615521,-26.148913,-48.615706,-26.152129,-48.618153,-26.151250,-48.618951,-26.149878,-48.618761,-26.146237,-48.620002",2024-08-14 07:16:00,BRIIP-DET,0,,18,12,2024-06-16 09:52:00,"BRAZIL, ITAPOA (SC), D&T TERMINAL RETROPORTUARIO",NULL,0
207979,BRIIP-DLL,,,-26.153172,-48.622488,,Itapoá,SC,89249-000,BR,0,1,"-26.153172,-48.622488,-26.153791,-48.618710,-26.150764,-48.616274,-26.151755,-48.614311,-26.154001,-48.615470,-26.152739,-48.617636,-26.153944,-48.618662,-26.154977,-48.617929,-26.155810,-48.619359,-26.155374,-48.621721,-26.153172,-48.622488",2024-07-10 13:35:00,BRIIP-DLL,0,,18,12,2024-03-26 13:21:00,"BRAZIL, ITAPOA (SC), LECHMAN DEPOT",NULL,NULL
134779,BRIIP-TIT,,,-26.17534272329248,-48.61093372400965,,Itapoá,SC,89249-000,BR,0,1,"-26.175343,-48.610934,-26.174138,-48.609297,-26.181644,-48.601688,-26.184404,-48.607841,-26.175343,-48.610934",2024-09-17 12:38:00,BRIIP-TIT,0,ZIM,18,21,2024-01-08 09:15:00,"BRAZIL, ITAPOA (SC), ITAPOA TERMINAIS PORTUARIOS",NULL,NULL
212777,BRITJ-TTC,,,-26.899077992506612,-48.67067054035209,37 R. Max,Itajaí,SC,88305-020,BR,0,1,"-26.899078,-48.670671,-26.898488,-48.669638,-26.900920,-48.665158,-26.901738,-48.659612,-26.902038,-48.659124,-26.902421,-48.659217,-26.903642,-48.663093,-26.901965,-48.663557,-26.901562,-48.667410,-26.900910,-48.669046,-26.899078,-48.670671",2024-03-31 08:22:00,BRITJ-TTC,0,,18,21,2024-03-31 08:22:00,"BRAZIL, ITAJAI (SC), APM TERMINALS ITAJAI",NULL,NULL
137026,BRNVT-TPN,,,-26.892421992163754,-48.66760726652555,R. Herta Tieme,Itajaí,SC,88305,BR,0,1,"-26.892422,-48.667607,-26.893727,-48.659739,-26.898627,-48.657431,-26.897032,-48.667770,-26.895409,-48.667055,-26.894133,-48.669005,-26.892422,-48.667607",2024-01-10 08:38:00,BRNVT-TPN,0,ZIM,18,21,2024-01-10 08:38:00,"BRAZIL, NAVEGANTES (SC), PORTONAVE - TERM. PORT. NAVEGANTES",NULL,NULL
1530718,BRPGU-DKT,,,-24.25383085802136,-50.73342607203895,,Ortigueira,PR,84350-000,BR,0,1,"-24.253831,-50.733426,-24.255489,-50.734316,-24.247197,-50.752273,-24.238799,-50.758348,-24.231441,-50.748783,-24.234088,-50.745726,-24.241251,-50.755826,-24.247779,-50.740463,-24.249861,-50.741895,-24.253831,-50.733426",2024-09-16 13:07:00,BRPGU-DKT,0,,18,12,2024-09-16 13:07:00,"BRAZIL, PARANAGUA (PR), KLABIN KBT DEPOT",NULL,0
127735,BRPGU-DRT,,,-25.538073,-48.561407,,Paranaguá,PR,,BR,0,1,"-25.538073,-48.561407,-25.534104,-48.559099,-25.536263,-48.554613,-25.539961,-48.558230,-25.538073,-48.561407",2024-01-01 14:45:00,BRPGU-DRT,0,ZIM,18,12,2024-01-01 06:53:00,"Brazil, PARANAGUA (PR), TRANSCONTAINER TCT",NULL,NULL
131155,BRPGU-TTC,,,-25.505367,-48.498041,,Paranaguá,PR,,BR,0,1,"-25.505367,-48.498041,-25.504984,-48.493722,-25.500955,-48.494060,-25.499170,-48.492665,-25.501086,-48.505386,-25.505773,-48.503853,-25.505367,-48.498041",2024-11-11 12:45:00,BRPGU-TTC,0,ZIM,18,21,2024-01-04 07:25:00,"BRAZIL, PARANAGUA (PR), TCP - TERM. CONT. DE PARANAGUA",NULL,NULL
129822,BRRGB-TTR,,,-32.12032542667282,-52.11052524628678,,Rio Grande,RS,,BR,0,1,"-32.120325,-52.110525,-32.121579,-52.102108,-32.130898,-52.102457,-32.130401,-52.108855,-32.126182,-52.111289,-32.120325,-52.110525",2024-09-29 13:10:00,BRRGB-TTR,0,ZIM,18,21,2024-01-03 07:23:00,"BRAZIL, RIO GRANDE (RS), TECON RIO GRANDE",NULL,NULL
1582314,BRRIO-DGT,,,-22.878573669859506,-43.22597692747354,10 R. Bôas Vindas,Rio de Janeiro,RJ,22452,BR,0,1,"-22.878574,-43.225977,-22.878904,-43.224546,-22.879973,-43.224861,-22.879948,-43.225342,-22.879734,-43.226187,-22.879434,-43.226292,-22.878574,-43.225977",2024-10-28 09:29:00,BRRIO-DGT,0,,18,12,2024-10-28 09:29:00,"BRAZIL, RIO DE JANEIRO (RJ), GT MINAS",NULL,0
130399,BRRIO-DRT,,,-22.87341548688092,-43.233055332371244,1700 Via Expressa Pres. João Goulart,Rio de Janeiro,RJ,,BR,0,1,"-22.873415,-43.233055,-22.873328,-43.233735,-22.875803,-43.233991,-22.878277,-43.233721,-22.878324,-43.232432,-22.874947,-43.232538,-22.875005,-43.232849,-22.873415,-43.233055",2024-01-03 13:24:00,BRRIO-DRT,0,ZIM,18,12,2024-01-03 12:16:00,"BRAZIL, RIO DE JANEIRO, RTC RIO TERMINAL DE CONTAINERS LTDA",NULL,NULL
137041,BRRIO-TMR,,,-22.882201308968817,-43.21428558041856,6 BR-101,Rio de Janeiro,RJ,,BR,0,1,"-22.882201,-43.214286,-22.871309,-43.204047,-22.872125,-43.203014,-22.870905,-43.202033,-22.871414,-43.201419,-22.884140,-43.213359,-22.883122,-43.214587,-22.882201,-43.214286",2024-01-10 08:51:00,BRRIO-TMR,0,ZIM,18,21,2024-01-10 08:51:00,"BRAZIL, RIO DE JANEIRO (RJ), MULTI RIO TERMINAL",NULL,NULL
148817,BRSNT-DDS,,,-23.93184982121656,-46.37375176091683,Rua Doutor Zelnor Paiva Magalhaes 671,Santos,SP,11090-040,BR,0,1,"-23.931850,-46.373752,-23.931673,-46.370368,-23.932596,-46.371151,-23.932742,-46.374122,-23.931850,-46.373752",2024-01-31 09:56:00,BRSNT-DDS,0,ZIM,18,12,2024-01-31 09:56:00,"BRAZIL, SANTOS (SP), DEPOT DEPOTAINER",NULL,NULL
1371740,BRSNT-DLL,,,-23.973016456083045,-46.26578549464085,411 Solo Brasil,Guarujá,SP,11472-500,BR,0,1,"-23.973016,-46.265785,-23.971903,-46.263428,-23.974455,-46.264403,-23.975150,-46.267874,-23.973291,-46.268655,-23.973016,-46.265785",2024-08-14 07:26:00,BRSNT-DLL,0,,18,12,2024-08-14 07:26:00,"BRAZIL, SANTOS (SP), LECHMAN TERMINAIS",NULL,0
206429,BRSNT-DLL2,,,-23.951373,-46.276354,1 R. Bebedouro,Guarujá,SP,11454-300,BR,0,1,"-23.951373,-46.276354,-23.949877,-46.271810,-23.950298,-46.271499,-23.951243,-46.270700,-23.951565,-46.271660,-23.952037,-46.273413,-23.952670,-46.276043,-23.951373,-46.276354",2024-09-18 11:45:00,BRSNT-DLL2,0,ZIM,18,12,2024-03-18 07:19:00,"BRAZIL, SANTOS (SP), LECHMAN TERMINAIS",NULL,NULL
1584888,BRSNT-DLL3,,,-23.97613935852263,-46.268262716230026,Ac. Terminal Marítimo,Guarujá,SP,11432-501,BR,0,1,"-23.976139,-46.268263,-23.977181,-46.267794,-23.978720,-46.271002,-23.977756,-46.272271,-23.976139,-46.268263",2024-10-30 07:23:00,BRSNT-DLL3,0,,18,12,2024-10-30 07:23:00,"BRAZIL, SANTOS (SP), LECHMAN TERMINAIS",NULL,0
1010213,BRSNT-DTT,,,-23.92092931632267,-46.39086949275409,447 R. B,Santos,SP,11090-001,BR,0,1,"-23.920929,-46.390869,-23.921455,-46.390864,-23.921547,-46.390523,-23.922685,-46.390711,-23.923141,-46.393606,-23.922470,-46.393642,-23.921552,-46.392555,-23.920929,-46.390869",2024-07-03 11:30:00,BRSNT-DTT,0,,18,12,2024-07-03 11:30:00,"BRAZIL, SANTOS (SP), TRANSTEC WORLD LOGISTICA LTDA",NULL,0
131163,BRSNT-TBT,,,-23.919963784451554,-46.356411199119094,,Santos,SP,,BR,0,1,"-23.919964,-46.356411,-23.922000,-46.345395,-23.922656,-46.345669,-23.922237,-46.347989,-23.926393,-46.349713,-23.925110,-46.357418,-23.919964,-46.356411",2024-01-04 08:17:00,BRSNT-TBT,0,ZIM,18,21,2024-01-04 08:17:00,"Brazil, Santos (SP), BRASIL TERMINAL PORTUARIO",NULL,NULL
203661,BRSNT-TSB,,,-23.960648001051666,-46.297032709390095,,Guarujá,SP,,BR,0,1,"-23.960648,-46.297033,-23.957578,-46.293493,-23.964650,-46.286874,-23.967160,-46.290750,-23.960648,-46.297033",2024-03-14 08:13:00,BRSNT-TSB,0,ZIM,18,21,2024-03-14 08:13:00,"BRAZIL, SANTOS (SP), SANTOS BRAZIL TERMINALS",NULL,NULL
143187,BRVTR-TTV,,,-20.32465243271335,-40.33082106503244,2000 TVV Terminal de Vila Velha,Vila Velha,ES,29115,BR,0,1,"-20.324652,-40.330821,-20.323269,-40.326614,-20.323639,-40.326421,-20.323994,-40.327519,-20.326934,-40.326439,-20.327049,-40.326764,-20.326448,-40.327264,-20.326777,-40.328986,-20.326258,-40.329372,-20.326571,-40.330391,-20.324652,-40.330821",2024-01-18 07:43:00,BRVTR-TTV,0,ZIM,18,21,2024-01-18 07:43:00,"BRAZIL, VITORIA (ES), TERMINAL VITORIA (INCL.TERM. DE VILA VELHA+RODRIMA",NULL,NULL
130403,BSFPO-TFB,,,26.539442,-78.761426,Warren J Levarity Hwy,BS,BS,,BS,0,1,"26.539442,-78.761426,26.536840,-78.757011,26.523410,-78.769544,26.526002,-78.773053,26.530635,-78.770855,26.531456,-78.772962,26.539442,-78.761426",2024-11-11 12:46:00,BSFPO-TFB,0,ZIM,18,21,2024-01-03 12:16:00,"BAHAMAS, FREEPORT (GRAND BAHAMAS), FREEPORT TERMINAL",NULL,NULL
1313140,BZBEI-TBZ,,,17.48176504654269,-88.20670840046711,Jane Usher Blvd,Belize City,Belize District,,BZ,0,1,"17.481765,-88.206708,17.482425,-88.201890,17.481168,-88.201664,17.481321,-88.200799,17.478426,-88.200027,17.478540,-88.200413,17.481118,-88.200998,17.481041,-88.202423,17.480597,-88.206602,17.481765,-88.206708",2024-08-07 08:51:00,BZBEI-TBZ,0,,18,21,2024-08-07 08:51:00,"BELIZE, BELIZE CITY, BELIZE CITY TERMINAL",NULL,0
325241,CACAL-DAB,,,50.96144342900104,-113.84214256019168,232188 Range Rd 283,Rocky View,AB,T1X 0K7,CA,0,1,"50.961443,-113.842143,50.961433,-113.835262,50.959576,-113.834853,50.959434,-113.842159,50.961443,-113.842143",2024-05-12 11:42:00,CACAL-DAB,0,,18,12,2024-05-12 11:42:00,"CANADA, CALGARY (AB), AMAR TRANSPORT CALGARY DEPOT",NULL,0
136045,CACAL-RCN,,,51.101474,-113.851475,250050 Lantz Wy,Delacour,AB,T0M 0T0,CA,0,1,"51.101474,-113.851475,51.118890,-113.823738,51.119328,-113.820227,51.099542,-113.852563,51.101474,-113.851475",2024-06-19 06:24:00,CACAL-RCN,0,ZIM,18,46,2024-01-09 14:06:00,"CANADA, CALGARY (AB), CALGARY CN RAMP",NULL,NULL
207962,CAEDM-DOC,,,53.549182053783284,-113.7795160092215,20 Acheson Rd,Acheson,AB,T7X 5A6,CA,0,1,"53.549182,-113.779516,53.551369,-113.763692,53.549858,-113.763369,53.548494,-113.765494,53.548573,-113.779497,53.549182,-113.779516",2024-03-25 06:56:00,CAEDM-DOC,0,,18,12,2024-03-25 06:56:00,"CANADA, EDMONTON (AB), OVERLAND CONTAINER TRANSPORTATION SERVICES",NULL,NULL
136048,CAEDM-REN,,,53.597843,-113.629587,17505 137 Ave NW,Edmonton,AB,T5V 1R7,CA,0,1,"53.597843,-113.629587,53.593059,-113.637492,53.575061,-113.638012,53.574382,-113.634944,53.577964,-113.633644,53.578303,-113.635308,53.592552,-113.634751,53.595382,-113.631648,53.597843,-113.629587",2024-03-28 07:15:00,CAEDM-REN,0,ZIM,18,46,2024-01-09 14:09:00,"CANADA, EDMONTON (AB), EDMONTON CN RAMP",NULL,NULL
1613005,CAHFX-DYM,,,44.578424,-63.637406,890 NS-306,Harrietsfield,NS,B3V 1A4,CA,0,1,"44.578424,-63.637406,44.578986,-63.636855,44.579130,-63.636947,44.579385,-63.636641,44.579501,-63.636810,44.579973,-63.636263,44.579936,-63.635977,44.579876,-63.635801,44.580608,-63.634969,44.580715,-63.634747,44.581012,-63.634656,44.581132,-63.634487,44.581100,-63.634142,44.580970,-63.633882,44.580905,-63.633784,44.580942,-63.633628,44.580757,-63.633296,44.580553,-63.633459,44.580224,-63.633889,44.579830,-63.634305,44.579241,-63.634845,44.578606,-63.635691,44.578059,-63.636400,44.577883,-63.636712,44.578424,-63.637406",2024-11-24 12:46:00,CAHFX-DYM,0,,18,12,2024-11-24 07:27:00,"CANADA, HALIFAX (NS), HUNT HARRIETSFIELD DEPOT (EX PA YEOMAN MARINE)",NULL,0
131634,CAHFX-TCE,,,44.67180016750041,-63.62567356493696,6235 Africville Rd,Halifax,NS,B3K 0A8,CA,0,1,"44.671800,-63.625674,44.671532,-63.624353,44.668296,-63.624206,44.667774,-63.622067,44.665552,-63.623199,44.663688,-63.626974,44.663435,-63.630915,44.671800,-63.625674",2024-01-04 09:26:00,CAHFX-TCE,0,ZIM,18,21,2024-01-04 09:26:00,"CANADA, HALIFAX (NS), PSA FAIRVIEW COVE TERMINAL.",NULL,NULL
131635,CAHFX-THT,,,44.6333087865946,-63.568785400956514,756 Terminal Rd,Halifax,NS,B3H 4P6,CA,0,1,"44.633309,-63.568785,44.633706,-63.567338,44.631116,-63.566221,44.632146,-63.561733,44.631381,-63.561216,44.630689,-63.563657,44.624552,-63.558176,44.624287,-63.559045,44.625979,-63.560555,44.624876,-63.564070,44.629806,-63.570523,44.630984,-63.567772,44.633309,-63.568785",2024-01-04 09:27:00,CAHFX-THT,0,ZIM,18,21,2024-01-04 09:27:00,"CANADA, HALIFAX (NS), PSA HALIFAX TERMINAL",NULL,NULL
149485,CAMTL-DUL,,,45.454272,-73.695508,2525 Rue Norman,Montréal,QC,H8S 1B1,CA,0,1,"45.454272,-73.695508,45.452321,-73.688076,45.450461,-73.687207,45.449867,-73.690964,45.449696,-73.693101,45.449699,-73.694856,45.454272,-73.695508",2024-02-01 09:09:00,CAMTL-DUL,0,ZIM,18,12,2024-02-01 09:08:00,"CANADA, MONTREAL (QC), ULTRA DEPOT",NULL,NULL
122821,CAMTL-RTN,,,45.485278,-73.686651,8080 A Boul Cavendish,Montréal,QC,H4T 1T1,CA,0,1,"45.485278,-73.686651,45.485545,-73.684887,45.484777,-73.679252,45.484293,-73.677431,45.452255,-73.686329,45.454967,-73.696987,45.485278,-73.686651",2024-12-01 10:50:00,CAMTL-RTN,0,ZIM,18,46,2023-12-26 15:02:00,"CANADA, MONTREAL (QC), TASCHERAU CN RAMP",NULL,NULL
1395392,CAMTN-RMT,,,46.07423156928755,-64.87515582758137,399 Delong Dr,Moncton,NB,E1E 0B1,CA,0,1,"46.074232,-64.875156,46.081154,-64.847417,46.080595,-64.846317,46.074970,-64.850426,46.069777,-64.867597,46.074232,-64.875156",2024-08-19 06:55:00,CAMTN-RMT,0,,18,46,2024-08-19 06:55:00,"CANADA, MONCTON (NB), MONCTON CN RAMP",NULL,0
131637,CAPRP-TDP,,,54.290177,-130.360412,Scott Rd,Prince Rupert,BC,V0V 1G0,CA,0,1,"54.290177,-130.360412,54.289878,-130.355291,54.287468,-130.353658,54.283731,-130.355355,54.279621,-130.358619,54.283507,-130.362012,54.290177,-130.360412",2024-06-27 11:31:00,CAPRP-TDP,0,ZIM,18,21,2024-01-04 09:33:00,"CANADA, PRINCE RUPERT (BC), FAIRVIEW TERMINAL",NULL,NULL
136077,CARGI-RRN,,,50.420501800912916,-104.4940100906617,SK-1,Regina,SK,S0G 4G0,CA,0,1,"50.420502,-104.494010,50.420523,-104.492636,50.413050,-104.492603,50.412965,-104.494010,50.420502,-104.494010",2024-01-09 14:29:00,CARGI-RRN,0,ZIM,18,46,2024-01-09 14:29:00,"CANADA, REGINA (SK), REGINA CN RAMP",NULL,NULL
136075,CASAK-RKN,,,52.10735518977509,-106.78504932916901,SK-7,Vanscoy,SK,S0L 3J0,CA,0,1,"52.107355,-106.785049,52.105569,-106.727299,52.102846,-106.747942,52.103650,-106.763970,52.105592,-106.777490,52.107355,-106.785049",2024-01-09 14:26:00,CASAK-RKN,0,ZIM,18,46,2024-01-09 14:26:00,"CANADA, SASKATOON (SK), SASKATOON CN RAMP",NULL,NULL
148815,CATRT-DAB,,,43.74156740171037,-79.70821096213105,2 Bramkay St,Brampton,ON,L6S 6E9,CA,0,1,"43.741567,-79.708211,43.738617,-79.704230,43.738725,-79.703915,43.738447,-79.703632,43.737162,-79.705560,43.740448,-79.709855,43.741567,-79.708211",2024-01-31 09:52:00,CATRT-DAB,0,ZIM,18,12,2024-01-31 09:52:00,"CANADA, TORONTO (ON), AMAR TRANSPORT BRAMPTON DEPOT",NULL,NULL
197497,CATRT-DAC,,,43.831477986794795,-79.6853313617676,10555 Hwy 50,Brampton,ON,L6P,CA,0,1,"43.831478,-79.685331,43.832262,-79.681565,43.830841,-79.679390,43.830478,-79.680966,43.830603,-79.681400,43.830159,-79.684725,43.831478,-79.685331",2024-03-03 12:15:00,CATRT-DAC,0,ZIM,18,12,2024-03-03 12:15:00,"CANADA, TORONTO (ON), ACE DEPOT INC",NULL,NULL
524557,CATRT-DMS,,,43.7039218525602,-79.67282289290812,,Mississauga,Mississauga,,CA,0,1,"43.703922,-79.672823,43.704195,-79.666707,43.698286,-79.673182,43.698995,-79.674257,43.701261,-79.672747,43.703922,-79.672823",2024-05-28 05:34:00,CATRT-DMS,0,,18,12,2024-05-28 05:34:00,"CANADA, TORONTO (ON), MISSISSAUGA DEPOT",NULL,0
538938,CATRT-DUL,,,43.61711131797554,-79.56255638405827,,Toronto,Toronto,,CA,0,1,"43.617111,-79.562556,43.615333,-79.561750,43.614240,-79.562660,43.613873,-79.564029,43.615115,-79.566054,43.617200,-79.562660,43.617111,-79.562556",2024-05-29 07:40:00,CATRT-DUL,0,,18,12,2024-05-29 07:40:00,"CANADA, TORONTO (ON), SEAPORT INTERMODAL DEPOT",NULL,0
122816,CATRT-RBN,,,43.748071,-79.68955,,Brampton,ON,,CA,0,1,"43.748071,-79.689550,43.736997,-79.674607,43.733973,-79.678741,43.739242,-79.685648,43.741078,-79.686546,43.743508,-79.689114,43.748071,-79.689550",2024-11-24 13:05:00,CATRT-RBN,0,ZIM,18,46,2023-12-26 14:53:00,"CANADA, TORONTO (ON), BRAMPTON CN RAMP",NULL,NULL
136065,CATRT-RMM,,,43.71464,-79.662595,,Mississauga,ON,,CA,0,1,"43.714640,-79.662595,43.707824,-79.670007,43.708431,-79.671076,43.708559,-79.671274,43.717666,-79.661361,43.714640,-79.662595",2024-11-24 13:07:00,CATRT-RMM,0,ZIM,18,46,2024-01-09 14:20:00,"CANADA, TORONTO (ON), MALPORT CN MISSISSAUGA RAMP",NULL,NULL
680177,CAVAN-DEA,,,49.15394287335164,-123.04601928412555,16100 Blundell Rd,Richmond,BC,V6W 0A2,CA,0,1,"49.153943,-123.046019,49.153871,-123.040570,49.152957,-123.040487,49.150750,-123.046130,49.153943,-123.046019",2024-06-09 13:56:00,CAVAN-DEA,0,,18,12,2024-06-09 13:56:00,"CANADA, VANCOUVER (BC), EURO ASIA TRANSLOAD INC",NULL,0
272517,CAVAN-DEM,,,49.20529741657751,-123.07721847578412,,Richmond,BC,,CA,0,1,"49.205297,-123.077218,49.205503,-123.075201,49.203853,-123.074814,49.203332,-123.077134,49.205297,-123.077218",2024-04-30 07:10:00,CAVAN-DEM,0,,18,12,2024-04-30 07:10:00,"CANADA, VANCOUVER (BC), EURO ASIA MITCHELL DEPOT",NULL,NULL
272519,CAVAN-DRA,,,49.200288,-123.050225,15600 River Rd,Richmond,BC,V6V 1L5,CA,0,1,"49.200288,-123.050225,49.201635,-123.050123,49.201780,-123.049360,49.201875,-123.046912,49.200010,-123.047027,49.199370,-123.047892,49.199345,-123.050245,49.200288,-123.050225",2024-08-15 06:33:00,CAVAN-DRA,0,,18,12,2024-04-30 07:12:00,"CANADA, VANCOUVER (BC), RAY-MONT LOGISTICS VANCOUVER INC.",NULL,NULL
133674,CAVAN-TCT,,,49.290362823024,-123.10003772505398,,Vancouver,BC,,CA,0,1,"49.290363,-123.100038,49.288037,-123.091888,49.289615,-123.091742,49.288108,-123.086649,49.284324,-123.087161,49.287888,-123.100036,49.290363,-123.100038",2024-01-07 07:43:00,CAVAN-TCT,0,ZIM,18,21,2024-01-07 07:43:00,"CANADA, VANCOUVER (BC), DP WORLD VANCOUVER - CENTERM",NULL,NULL
104214,CAVAN-TDP,,,49.024488,-123.145998,,Delta,BC,,CA,0,1,"49.024488,-123.145998,49.015857,-123.153933,49.022365,-123.168505,49.024967,-123.164995,49.023666,-123.160568,49.029229,-123.153536,49.028845,-123.151768,49.024573,-123.153780,49.022899,-123.149985,49.025234,-123.147747,49.024488,-123.145998",2024-11-28 07:33:00,CAVAN-TDP,0,ZIM,18,21,2023-12-03 07:58:00,"CANADA, VANCOUVER (BC), DELTA PORT",NULL,NULL
199825,CAYWG-DTS,,,49.919157,-96.9941,135 Saunders St,Oakbank,MB,R0E 1J0,CA,0,1,"49.919157,-96.994100,49.919141,-96.991867,49.916452,-96.992000,49.916555,-96.993490,49.917108,-96.993449,49.917167,-96.994329,49.919157,-96.994100",2024-07-18 06:21:00,CAYWG-DTS,0,ZIM,18,12,2024-03-07 07:29:00,"CANADA, WINNIPEG (MB), TREALSHIP DEPOT",NULL,NULL
137594,CAYWG-RWN,,,49.875904,-97.067802,821 Lagimodiere Blvd,Winnipeg,MB,R2J,CA,0,1,"49.875904,-97.067802,49.870885,-97.070637,49.857093,-97.032644,49.855898,-97.023457,49.862357,-97.028334,49.868571,-97.043267,49.875904,-97.067802",2024-08-15 06:24:00,CAYWG-RWN,0,ZIM,18,46,2024-01-10 10:13:00,"CANADA, WINNIPEG (MB), WINNIPEG CN RAMP",NULL,NULL
173244,CHBSF-DSB,,,47.55176211283896,7.642436272161177,54 Hafenstrasse,Birsfelden,BL,4127,CH,0,1,"47.551762,7.642436,47.552398,7.643721,47.550802,7.645126,47.550698,7.643996,47.551762,7.642436",2024-02-14 14:41:00,CHBSF-DSB,0,ZIM,18,12,2024-02-14 14:41:00,"SWITZERLAND, BASLE, SWISSTERMINAL BASLE",NULL,NULL
1628333,CIABI-TCI,,,5.287678605561098,-4.014039291297081,,Abidjan,Abidjan Autonomous District,,CI,0,1,"5.287679,-4.014039,5.285416,-4.008585,5.277383,-4.008244,5.277779,-4.013244,5.277326,-4.018016,5.285190,-4.018130,5.287679,-4.014039",2024-12-09 07:13:00,CIABI-TCI,0,,18,21,2024-12-09 07:13:00,"IVORY COAST, ABIDJAN, COTE DIVOIRE TERMINAL",NULL,0
1471961,CIABI-TSV,,,5.272071001103598,-3.997188628329127,,Abidjan,Abidjan Autonomous District,,CI,0,1,"5.272071,-3.997189,5.269457,-3.994518,5.264363,-3.999154,5.267082,-4.001869,5.272071,-3.997189",2024-09-05 11:41:00,CIABI-TSV,0,,18,21,2024-09-05 11:41:00,"IVORY COAST, ABIDJAN, SOUTH VRIDI TERMINAL",NULL,0
136961,CIABI-TVR,,,5.277166372600449,-4.009603024387724,,Abidjan,,,CI,0,1,"5.277166,-4.009603,5.277169,-4.008868,5.277176,-4.008054,5.272292,-4.007587,5.270030,-4.011109,5.270325,-4.013375,5.277515,-4.013413,5.277273,-4.010461,5.277166,-4.009603",2024-12-09 07:11:00,CIABI-TVR,0,ZIM,18,21,2024-01-10 07:33:00,"IVORY COAST, ABIDJAN, VRIDI TERMINAL",NULL,NULL
772260,CLIIC-DAG,,,-33.56507579952101,-71.566470098251,315 Los Aromos,San Antonio,Valparaíso,,CL,0,1,"-33.565076,-71.566470,-33.566250,-71.561310,-33.568586,-71.561844,-33.567289,-71.567048,-33.565076,-71.566470",2024-09-17 12:40:00,CLIIC-DAG,0,,18,12,2024-06-16 10:00:00,"CHILE, SAN ANTONIO, AGUNSA DEPOT - SAN ANTONIO",NULL,0
120890,CLIIC-TPC,,,-33.592891,-71.623335,,San Antonio,,,CL,0,1,"-33.592891,-71.623335,-33.591714,-71.622249,-33.586773,-71.624036,-33.586988,-71.622311,-33.595093,-71.619859,-33.595231,-71.617515,-33.588271,-71.617215,-33.586282,-71.619348,-33.585311,-71.617823,-33.588155,-71.614571,-33.596599,-71.615304,-33.602159,-71.620438,-33.601023,-71.623868,-33.596489,-71.622477,-33.592891,-71.623335",2024-08-15 12:06:00,CLIIC-TPC,0,ZIM,18,21,2023-12-24 12:33:00,"CHILE, SAN ANTONIO, DP WORLD SAN ANTONIO TERMINAL",NULL,NULL
424913,CLSNC-DAG,,,-33.31654769443041,-70.74668004351966,1962 Sta. Isabel,Chacabuco,Región Metropolitana,,CL,0,1,"-33.316548,-70.746680,-33.315054,-70.744181,-33.319262,-70.740434,-33.320964,-70.742951,-33.316548,-70.746680",2024-05-20 08:30:00,CLSNC-DAG,0,,18,12,2024-05-20 08:30:00,"CHILE, SANTIAGO, AGUNSA DEPOT - SANTIAGO",NULL,0
207951,CLVAL-TVT,,,-33.027857639634135,-71.6295792150487,1480 Altamirano,Valparaíso,Valparaíso,,CL,0,1,"-33.027858,-71.629579,-33.027561,-71.627974,-33.033932,-71.626417,-33.036603,-71.628612,-33.031043,-71.630240,-33.027858,-71.629579",2024-03-20 13:24:00,CLVAL-TVT,0,,18,21,2024-03-20 13:24:00,"CHILE, VALPARAISO, TERMINAL PACIFICO SUR VALPARAISO (TPS S.A.)",NULL,NULL
1308712,CLWQU-DDP,,,-36.72092105229454,-72.98403413537415,5 Alcalde René Mendoza,Lirquen,Bío Bío,4140649,CL,0,1,"-36.720921,-72.984034,-36.722875,-72.985685,-36.724371,-72.983503,-36.725569,-72.982815,-36.724434,-72.979651,-36.723190,-72.979415,-36.722103,-72.981872,-36.720921,-72.984034",2024-08-06 14:45:00,CLWQU-DDP,0,,18,12,2024-08-06 14:45:00,"CHILE, LIRQUEN, DPWL - LIRQUEN DEPOT",NULL,0
1308708,CLWQU-TDP,,,-36.713136,-72.986905,,Concepción Province,Bio Bio,,CL,0,1,"-36.713136,-72.986905,-36.713424,-72.984274,-36.712657,-72.981343,-36.713855,-72.980656,-36.714910,-72.984094,-36.716444,-72.982779,-36.719368,-72.983795,-36.718721,-72.985470,-36.716732,-72.985530,-36.715749,-72.987025,-36.713136,-72.986905",2024-08-19 06:52:00,CLWQU-TDP,0,,18,21,2024-08-06 14:42:00,"CHILE, LIRQUEN, DP WORLD - LIRQUEN",NULL,0
1313153,CNBJO-TBJ,,,22.90188715911497,113.21372667779146,Yun Hai Liu Lu,Fo Shan Shi,Guang Dong Sheng,528308,CN,0,1,"22.901887,113.213727,22.899562,113.213128,22.898657,113.216449,22.898159,113.219524,22.899482,113.226984,22.901571,113.226173,22.900992,113.218807,22.900982,113.216930,22.901887,113.213727",2024-09-04 12:20:00,CNBJO-TBJ,0,,18,21,2024-08-07 08:57:00,"CHINA, BEIJIAO (GD), BEIJIAO PORT TERMINAL",NULL,0
1313516,CNCHE-TPC,,,31.763518305794094,120.93642582780961,G524,Su Zhou Shi,Jiang Su Sheng,215512,CN,0,1,"31.763518,120.936426,31.764507,120.938192,31.765438,120.943513,31.764944,120.945279,31.758310,120.945704,31.758253,120.937119,31.760192,120.936448,31.761769,120.937499,31.763518,120.936426",2024-08-07 09:17:00,CNCHE-TPC,0,,18,21,2024-08-07 09:17:00,"CHINA, CHANGSHU (JS), PENAVICO CHANGSHU INTL FREIGHT&FORWARDING CO LTD",NULL,0
928864,CNCHZ-TCH,,,31.99578358090507,119.97589970671532,Heng Yi Lu,Chang Zhou Shi,Jiang Su Sheng,213127,CN,0,1,"31.995784,119.975900,31.992396,119.971797,31.986125,119.978723,31.988969,119.982390,31.995784,119.975900",2024-06-27 10:32:00,CNCHZ-TCH,0,,18,21,2024-06-27 10:32:00,"CHINA, CHANGZHOU (JS), NEW CHANGJIANG PORT",NULL,0
1549417,CNDAF-TDH,,,33.26936,120.747579,,Yancheng,Jiangsu,224145,CN,0,1,"33.269360,120.747579,33.267638,120.744065,33.263967,120.746414,33.264435,120.747262,33.263819,120.747672,33.265214,120.750627,33.269399,120.747653,33.269360,120.747579",2024-10-01 08:55:00,CNDAF-TDH,0,,18,21,2024-09-30 09:26:00,"CHINA, DAFENG, DAFENG HARBOR PORT CO.,LTD",NULL,0
1323289,CNDAL-DZY,,,39.00006555861333,121.87531255809495,,Dalian,Liaoning,116610,CN,0,1,"39.000066,121.875313,38.991261,121.891632,38.989618,121.888845,38.991400,121.884888,38.990142,121.883944,38.994440,121.875492,38.997655,121.873245,39.000066,121.875313",2024-08-08 11:03:00,CNDAL-DZY,0,,18,12,2024-08-08 11:03:00,"CHINA, DALIAN (LN), DALIAN ZHONGYUN LOGISTICS GROUP CO.,LTD.",NULL,0
128400,CNDAL-TDC,,,39.014010609463696,121.84671922789387,,Da Lian Shi,Liao Ning Sheng,116610,CN,0,1,"39.014011,121.846719,39.021964,121.854208,39.016415,121.859861,39.008787,121.873846,39.002566,121.868746,39.014011,121.846719",2024-08-08 10:59:00,CNDAL-TDC,0,ZIM,18,21,2024-01-02 08:50:00,"CHINA, DALIAN (LN), DALIAN CONT TERMINAL",NULL,NULL
1080307,CNFUZ-DFW,,,25.427009,119.285929,Gang Qu Da Dao,Fu Zhou Shi,Fu Jian Sheng,350309,CN,0,1,"25.427009,119.285929,25.429503,119.287210,25.430541,119.284117,25.428246,119.282946,25.427009,119.285929",2024-07-10 06:47:00,CNFUZ-DFW,0,,18,12,2024-07-09 07:54:00,"CHINA, FUZHOU (FJ), FANSHUN WAREHOUSING & TRANSPORTATION CO. LTD",NULL,0
1525345,CNFUZ-DSM,,,26.016101574606395,119.47801069634176,G15,Fu Zhou Shi,Fu Jian Sheng,350201,CN,0,1,"26.016102,119.478011,26.013303,119.476830,26.012509,119.480191,26.015330,119.481447,26.015530,119.479977,26.016020,119.478696,26.016102,119.478011",2024-09-15 12:03:00,CNFUZ-DSM,0,,18,12,2024-09-15 12:03:00,"CHINA, FUZHOU (FJ), SINOTRANS FUZHOU MAWEI DEPOT",NULL,0
1472029,CNFUZ-TFQ,,,26.013323207941173,119.47629397667939,100-6 Hong Shan,,,350201,CN,0,1,"26.013323,119.476294,26.012440,119.480175,26.003308,119.476108,26.006781,119.471815,26.013323,119.476294",2024-09-15 12:01:00,CNFUZ-TFQ,0,,18,21,2024-09-05 11:51:00,"CHINA, FUZHOU (FJ), QINGZHOU CONT TERMI.",NULL,0
127732,CNFUZ-THT,,,26.003379,119.461557,,,,,CN,0,1,"26.003379,119.461557,26.009042,119.468620,26.002320,119.477198,25.993966,119.469682,26.003379,119.461557",2024-09-05 11:50:00,CNFUZ-THT,0,ZIM,18,21,2024-01-01 06:53:00,"CHINA, FUZHOU (FJ), HAIYING TERMINAL",NULL,NULL
1531987,CNGAO-TGM,,,22.874032348499412,112.90585473257761,25 沿江路,Fo Shan Shi,Guang Dong Sheng,528599,CN,0,1,"22.874032,112.905855,22.873738,112.902448,22.866619,112.906319,22.867371,112.907950,22.874032,112.905855",2024-09-17 09:11:00,CNGAO-TGM,0,,18,21,2024-09-17 09:11:00,"CHINA, GAO MING (GD), GAO MING TERMINAL",NULL,0
129821,CNHAU-THA,,,20.031699,110.274665,,Haikou,Hainan,570314,CN,0,1,"20.031699,110.274665,20.031241,110.282023,20.035982,110.280853,20.038031,110.273803,20.045049,110.275667,20.041676,110.288581,20.028408,110.288907,20.026917,110.281136,20.027779,110.274817,20.031699,110.274665",2024-01-31 09:43:00,CNHAU-THA,0,ZIM,18,21,2024-01-03 07:23:00,"CHINA, HAIKOU (HI), Haikou Port",NULL,NULL
1323400,CNHUA-DGY,,,23.089929401056665,113.48209462910756,13 Ping Yang Da Jie,Guang Zhou Shi,Guang Dong Sheng,510725,CN,0,1,"23.089929,113.482095,23.089726,113.482882,23.089367,113.482796,23.089200,113.483267,23.087094,113.482902,23.087462,113.481990,23.088474,113.481181,23.089929,113.482095",2024-08-08 11:17:00,CNHUA-DGY,0,,18,12,2024-08-08 11:17:00,"CHINA, HUANGPU (GD), LUCKY STAR GZH DEPOT",NULL,0
1548507,CNHUA-THS,,,23.09748059192421,113.4463415169406,,Guang Zhou Shi,CN,510700,CN,0,1,"23.097481,113.446342,23.097236,113.449650,23.095769,113.449561,23.094899,113.452693,23.092943,113.451482,23.094220,113.446371,23.094872,113.439104,23.096910,113.439193,23.096394,113.446223,23.097481,113.446342",2024-09-29 12:26:00,CNHUA-THS,0,,18,21,2024-09-29 12:26:00,"CHINA, HUANGPU (GD), HUANGPU STEVEDORING",NULL,0
1323314,CNHUA-TJS,,,23.048525994346235,113.51014754869828,,Guang Zhou Shi,Guang Dong Sheng,510735,CN,0,1,"23.048526,113.510148,23.050152,113.513551,23.046927,113.515462,23.047495,113.516467,23.045724,113.517458,23.043187,113.513422,23.048526,113.510148",2024-08-08 11:09:00,CNHUA-TJS,0,,18,21,2024-08-08 11:09:00,"CHINA, HUANGPU (GD), JI SI",NULL,0
1608862,CNHUA-TWC,,,23.094883646384048,113.45300279922901,,Guangzhou,Guangdong Province,510700,CN,0,1,"23.094884,113.453003,23.094079,113.456579,23.091758,113.456139,23.092678,113.452193,23.094884,113.453003",2024-11-20 09:03:00,CNHUA-TWC,0,,18,21,2024-11-20 09:03:00,"CHINA, HUANGPU (GD), WU CHONG",NULL,0
1628335,CNHXI-TLT,,,28.41526491781687,121.66401713941246,Wèi Mìng Míng De Dào Lù,Tai Zhou Shi,Zhe Jiang Sheng,317511,CN,0,1,"28.415265,121.664017,28.413951,121.667549,28.412813,121.667024,28.414149,121.663450,28.415265,121.664017",2024-12-09 07:15:00,CNHXI-TLT,0,,18,21,2024-12-09 07:15:00,"CHINA, HAIMEN, LONGMEN TERMINAL",NULL,0
1313641,CNIHZ-TNI,,,23.045451413839086,113.24893978305772,262 Nan Jiao Dong Sheng Fang,Guang Zhou Shi,Guang Dong Sheng,528252,CN,0,1,"23.045451,113.248940,23.045183,113.249555,23.039495,113.248206,23.039278,113.241076,23.043996,113.241685,23.045451,113.248940",2024-08-07 09:22:00,CNIHZ-TNI,0,,18,21,2024-08-07 09:21:00,"CHINA, SANSHAN (GD), NANHAI INTL TERMINA",NULL,0
1313819,CNJIA-TJI,,,22.62126588108572,113.10239365501889,35-2 高沙四街,Jiang Men Shi,Guang Dong Sheng,529090,CN,0,1,"22.621266,113.102394,22.620376,113.101430,22.623539,113.098470,22.623642,113.096299,22.624314,113.097363,22.625031,113.095995,22.626501,113.096163,22.625290,113.098352,22.622321,113.101598,22.621266,113.102394",2024-08-07 09:29:00,CNJIA-TJI,0,,18,21,2024-08-07 09:29:00,"CHINA, JIANGMEN (GD), JICT",NULL,0
1400221,CNJIA-TJM,,,22.542736460912366,113.16644429150404,,Jiang Men Shi,Guang Dong Sheng,529080,CN,0,1,"22.542736,113.166444,22.540490,113.172310,22.537645,113.171211,22.539747,113.165248,22.542736,113.166444",2024-08-20 10:34:00,CNJIA-TJM,0,,18,21,2024-08-20 10:34:00,"CHINA, JIANGMEN (GD), JIANGMEN NEW PORT DEVELOPMENT CO.,LTD",NULL,0
1472037,CNJJA-TJI,,,22.816558150630726,113.02553886933299,G15,Fo Shan Shi,Guang Dong Sheng,528203,CN,0,1,"22.816558,113.025539,22.818261,113.028748,22.816920,113.030157,22.814802,113.030203,22.814238,113.029222,22.813823,113.025966,22.816558,113.025539",2024-09-05 12:13:00,CNJJA-TJI,0,,18,21,2024-09-05 12:13:00,"CHINA, JIUJIANG (GD), JIUJIANG TERMINAL",NULL,0
1100207,CNJJG-TPO,,,29.72403153385457,115.88874672782657,Yong An Di,Jiu Jiang Shi,Jiang Xi Sheng,332103,CN,0,1,"29.724032,115.888747,29.723104,115.891650,29.719370,115.889924,29.720273,115.886966,29.724032,115.888747",2024-07-10 13:57:00,CNJJG-TPO,0,,18,21,2024-07-10 13:57:00,"CHINA, JIUJIANG (JX), CHONGQING PACIFIC OCEAN INTL FRT CO LTD.",NULL,0
1538450,CNLEL-TLL,,,22.89702,113.14491,,Fo Shan Shi,Guang Dong Sheng,528322,CN,0,1,"22.897020,113.144910,22.898590,113.139171,22.895864,113.135226,22.891877,113.129248,22.885194,113.135272,22.888598,113.139751,22.893032,113.139657,22.892890,113.141682,22.895864,113.141996,22.896277,113.145000,22.897020,113.144910",2024-12-04 13:54:00,CNLEL-TLL,0,,18,21,2024-09-22 10:30:00,"CHINA, LELIU (GD), LELIU TERMINAL",NULL,0
1622293,CNLYU-DLY,,,34.71407072290816,119.28919554806816,Yantuo E Rd,Lian Yun Gang Shi,Jiang Su Sheng,222068,CN,0,1,"34.714071,119.289196,34.716876,119.288267,34.717214,119.290062,34.714557,119.291028,34.714088,119.289287,34.714071,119.289196",2024-12-03 11:50:00,CNLYU-DLY,0,,18,12,2024-12-03 11:50:00,"CHINA, LIANYUNGANG , LIANYUNGANG YUANQIAN",NULL,0
1011584,CNNGB-DG1,,,29.886726218448104,121.94899337103851,Wèi Mìng Míng De Dào Lù,Ning Bo Shi,Zhe Jiang Sheng,,CN,0,1,"29.886726,121.948993,29.886377,121.948605,29.885728,121.948317,29.882622,121.949008,29.881288,121.949871,29.883471,121.952921,29.887063,121.952777,29.887013,121.951856,29.887238,121.951195,29.886951,121.950705,29.886726,121.948993",2024-07-03 13:32:00,CNNGB-DG1,0,,18,12,2024-07-03 13:32:00,"CHINA, NINGBO (ZJ), GREATING FORTUNE (NGB) LOG CO LTD (BFT)",NULL,0
1583998,CNNGB-DG11,,,29.828753933954374,122.01750927875554,Yan Hai Zhong Xian,Ning Bo Shi,Zhe Jiang Sheng,315814,CN,0,1,"29.828754,122.017509,29.830025,122.020370,29.831414,122.022574,29.829051,122.025107,29.828528,122.021466,29.827459,122.018194,29.828754,122.017509",2024-10-29 14:21:00,CNNGB-DG11,0,,18,12,2024-10-29 14:21:00,"CHINA, NINGBO (ZJ), GREATING FORTUNE (NGB) LOG CO LTD (BFT)",NULL,0
679319,CNNGB-DG3,,,29.934390736199376,121.83220790164359,9 创业四路,Ning Bo Shi,Zhe Jiang Sheng,315824,CN,0,1,"29.934391,121.832208,29.933507,121.834897,29.931590,121.834037,29.932273,121.831333,29.934391,121.832208",2024-06-09 12:03:00,CNNGB-DG3,0,,18,12,2024-06-09 12:03:00,"CHINA, NINGBO (ZJ), GREATING FORTUNE (NGB) LOG CO LTD (N RD)",NULL,0
1472039,CNNGB-DNC,,,29.937669409088116,121.82212594747688,Ying Bin Lu,Ning Bo Shi,Zhe Jiang Sheng,315824,CN,0,1,"29.937669,121.822126,29.936064,121.826936,29.933627,121.825908,29.934887,121.820846,29.937669,121.822126",2024-09-05 12:15:00,CNNGB-DNC,0,,18,12,2024-09-05 12:15:00,"CHINA, NINGBO (ZJ), NINGBO DAGANG NEW CENTURY CONTAINER CO.,LTD",NULL,0
1323421,CNNGB-DNI,,,29.87888845711518,121.95684283478994,华光厂,Ning Bo Shi,CN,315834,CN,0,1,"29.878888,121.956843,29.880106,121.958433,29.879971,121.959603,29.877721,121.959828,29.876123,121.957809,29.876444,121.956306,29.877730,121.955633,29.878888,121.956843",2024-08-08 11:25:00,CNNGB-DNI,0,,18,12,2024-08-08 11:25:00,"CHINA, NINGBO (ZJ), NINGBO CIMC CONTAINER SERVICES CO.,LTD",NULL,0
1323442,CNNGB-DNL,,,29.89361713338473,121.90800504321642,Lin Gang Yi Lu,Ning Bo Shi,Zhe Jiang Sheng,315828,CN,0,1,"29.893617,121.908005,29.893678,121.909433,29.892287,121.909964,29.891721,121.909411,29.891098,121.908453,29.891046,121.907348,29.891985,121.906761,29.891949,121.906035,29.892793,121.905647,29.893160,121.904475,29.893495,121.904733,29.893617,121.908005",2024-09-17 12:46:00,CNNGB-DNL,0,,18,12,2024-08-08 11:32:00,"CHINA, NINGBO (ZJ), NINGBO LUYUAN LOGISTICS CO., LTD",NULL,0
1472043,CNNGB-DSK,,,29.879316957609042,122.02989056441608,,,,315813,CN,0,1,"29.879317,122.029891,29.877080,122.032314,29.872368,122.028446,29.873241,122.026390,29.875640,122.025813,29.877091,122.026810,29.879317,122.029891",2024-10-10 07:55:00,CNNGB-DSK,0,,18,12,2024-09-05 12:21:00,"CHINA, NINGBO (ZJ), NINGBO SKYLARK CONTAINER CO.,LTD.",NULL,0
1472087,CNNGB-DZX,,,29.894866,121.905551,Lin Gang Yi Lu,Ning Bo Shi,Zhe Jiang Sheng,315828,CN,0,1,"29.894866,121.905551,29.894280,121.905560,29.893900,121.904454,29.893780,121.904747,29.893568,121.904792,29.893590,121.906950,29.893709,121.909252,29.893809,121.909526,29.895452,121.909675,29.894866,121.905551",2024-09-17 12:45:00,CNNGB-DZX,0,,18,12,2024-09-05 12:54:00,"CHINA, NINGBO (ZJ), NINGBO ZHAOHUA XINGHE CONTAINERS SERVICE CO LTD",NULL,0
1313869,CNNGB-TDX,,,29.930582876676397,121.92264459281438,,Ning Bo Shi,Zhe Jiang Sheng,315812,CN,0,1,"29.930583,121.922645,29.938923,121.936856,29.937220,121.938289,29.930157,121.936528,29.922490,121.925307,29.930583,121.922645",2024-08-07 09:32:00,CNNGB-TDX,0,,18,21,2024-08-07 09:32:00,"CHINA, NINGBO (ZJ), NINGBO DAXIE CHINA MERCHANTS INTL TERMINAL CO LTD",NULL,0
209595,CNNGB-TMI,,,29.783226,122.003342,Xin Gang Lu,Ning Bo Shi,Zhe Jiang Sheng,315832,CN,0,1,"29.783226,122.003342,29.791605,122.013827,29.783613,122.023163,29.765024,121.999368,29.771316,121.991789,29.783226,122.003342",2024-12-01 10:46:00,CNNGB-TMI,0,,18,21,2024-03-28 13:50:00,"CHINA, NINGBO (ZJ), NINGBO MEISHAN-ISLAND INTERNATIONAL CONTAINER TERM",NULL,NULL
131183,CNNGB-TNB,,,29.93496228097696,121.85494496183452,,Ning Bo Shi,Zhe Jiang Sheng,315899,CN,0,1,"29.934962,121.854945,29.928768,121.875357,29.920691,121.871469,29.926291,121.852829,29.934962,121.854945",2024-01-04 09:00:00,CNNGB-TNB,0,ZIM,18,21,2024-01-04 09:00:00,"CHINA, NINGBO (ZJ), NINGBO BEILUN INT",NULL,NULL
131179,CNNGB-TSC,,,29.946564509107716,121.83052430624161,,Ning Bo Shi,Zhe Jiang Sheng,315824,CN,0,1,"29.946565,121.830524,29.941915,121.842082,29.932114,121.838904,29.935298,121.831020,29.941772,121.834033,29.943024,121.828378,29.946565,121.830524",2024-01-04 08:56:00,CNNGB-TSC,0,ZIM,18,21,2024-01-04 08:56:00,"CHINA, NINGBO (ZJ), NINGBO BEILUN SECOND",NULL,NULL
129820,CNNGB-TYN,,,29.887066,122.021062,,,,315813,CN,0,1,"29.887066,122.021062,29.896070,122.025183,29.889259,122.069488,29.879431,122.057836,29.881440,122.042853,29.887066,122.021062",2024-12-03 14:05:00,CNNGB-TYN,0,ZIM,18,21,2024-01-03 07:23:00,"CHINA, NINGBO (ZJ), NINGBO YUAN DONG TERMINAL LTD.",NULL,NULL
131609,CNNGB-TZY,,,29.99282,121.839584,,Zhou Shan Shi,Zhe Jiang Sheng,316033,CN,0,1,"29.992820,121.839584,29.993496,121.843468,29.990740,121.845370,29.991884,121.847912,29.979006,121.857283,29.976046,121.850940,29.983448,121.845379,29.986363,121.843423,29.992364,121.839490,29.992820,121.839584",2024-07-30 13:06:00,CNNGB-TZY,0,ZIM,18,21,2024-01-04 09:03:00,"CHINA, NINGBO (ZJ), ZHOUSHAN YONGZHOU CONTAINER TERMINALS LIMITED",NULL,NULL
1313910,CNNHJ-TJI,,,28.828344165598125,115.96082185390463,Yang Jia Hu Jie,Nan Chang Shi,Jiang Xi Sheng,330117,CN,0,1,"28.828344,115.960822,28.822482,115.965686,28.819989,115.962302,28.826104,115.957169,28.828344,115.960822",2024-08-07 09:35:00,CNNHJ-TJI,0,,18,21,2024-08-07 09:35:00,"CHINA, NANCHANG (JX), JIANGXI INTERNATIONAL CONTAINER TERMINAL CO LTD",NULL,0
1590113,CNNNJ-TJC,,,31.94425767602958,118.58742781212413,,Nan Jing Shi,Jiang Su Sheng,211808,CN,0,1,"31.944258,118.587428,31.941728,118.589821,31.939243,118.586559,31.943316,118.583577,31.944961,118.586211,31.944258,118.587428",2024-11-03 12:02:00,CNNNJ-TJC,0,,18,21,2024-11-03 12:02:00,"CHINA, NANJING (JS), NANJING PORT JIANGBEI CONTAINER CO.LTD",NULL,0
120886,CNNNJ-TLT,,,32.19779195351334,119.04432453781561,NULL,Nanjing,Jiangsu,NULL,CN,0,1,"32.197792,119.044325,32.192146,119.050743,32.204616,119.071864,32.214762,119.073017,32.217132,119.065745,32.212372,119.062710,32.197792,119.044325",2024-06-26 05:56:00,CNNNJ-TLT,0,ZIM,18,21,2023-12-24 12:33:00,"CHINA, NANJING (JS), NANJING LONGTAN",NULL,NULL
1544619,CNNSJ-DGH,,,22.645258,113.67268,,Guangzhou,Guangdong Province,511464,CN,0,1,"22.645258,113.672680,22.645741,113.674562,22.643995,113.675046,22.643627,113.672955,22.645162,113.672594,22.645258,113.672680",2024-11-26 06:53:00,CNNSJ-DGH,0,,18,12,2024-09-26 12:39:00,"CHINA, NANSHA, GUANGZHOU HONG YUN (ON DOCK DEPOT)",NULL,0
1323467,CNNSJ-DHY,,,22.629266889423917,113.67136276361583,Yang Fan Lu,Guang Zhou Shi,Guang Dong Sheng,511464,CN,0,1,"22.629267,113.671363,22.629442,113.672584,22.628257,113.672972,22.628040,113.671516,22.629267,113.671363",2024-08-08 11:38:00,CNNSJ-DHY,0,,18,12,2024-08-08 11:38:00,"CHINA, NANSHA (GD), GUANGZHOU HONG YUN LOGISTICS SERVICE CO.,LTD.",NULL,0
1538561,CNNSJ-DSG,,,22.643686,113.67323,23 龙穴大道南,Guang Zhou Shi,Guang Dong Sheng,511464,CN,0,1,"22.643686,113.673230,22.643940,113.675301,22.641666,113.675754,22.641240,113.673851,22.643686,113.673230",2024-09-22 12:15:00,CNNSJ-DSG,0,,18,12,2024-09-22 12:13:00,"CHINA, NANSHA (GD), SHENZHEN GREATING FORTUNE NANSHA DEPOT",NULL,0
1530642,CNNSJ-DZM,,,22.630038823813848,113.66692519159409,S73,Guang Zhou Shi,Guang Dong Sheng,511464,CN,0,1,"22.630039,113.666925,22.630515,113.670673,22.628827,113.671101,22.628255,113.667265,22.630039,113.666925",2024-09-16 11:58:00,CNNSJ-DZM,0,,18,12,2024-09-16 11:58:00,"CHINA, NANSHA (GD), ZIM LOGISTICS (CHINA) CO., LTD SHENZHEN BRANCH",NULL,0
555329,CNNSJ-TGS,,,22.646135,113.675161,,Guang Zhou Shi,Guang Dong Sheng,,CN,0,1,"22.646135,113.675161,22.648099,113.681376,22.629018,113.685285,22.627666,113.676219,22.640819,113.673331,22.641508,113.676113,22.646135,113.675161",2024-09-22 12:16:00,CNNSJ-TGS,0,,18,21,2024-05-30 09:08:00,"CHINA, NANSHA (GD), GUANGZHOU SOUTH CHINA OCEANGATE CONTAINER TERMINAL",NULL,0
225338,CNNSJ-TNI,,,22.624319541650678,113.67472567085383,,Guang Zhou Shi,Guang Dong Sheng,511464,CN,0,1,"22.624320,113.674726,22.626514,113.686018,22.607708,113.690145,22.605057,113.679414,22.624320,113.674726",2024-04-08 06:23:00,CNNSJ-TNI,0,,18,21,2024-04-08 06:23:00,"CHINA, NANSHA (GD), NANSHA INTERNATIONAL CONTAINER TERMINL",NULL,NULL
1400145,CNNTG-TNT,,,31.804182342629346,121.01954829580978,,Nan Tong Shi,Jiang Su Sheng,226317,CN,0,1,"31.804182,121.019548,31.802636,121.030796,31.795241,121.029220,31.796401,121.019579,31.804182,121.019548",2024-08-20 10:00:00,CNNTG-TNT,0,,18,21,2024-08-20 10:00:00,"CHINA, NANTONG (JS), NANTONG PORT AUTHORI",NULL,0
1592098,CNOCQ-TIC,,,29.620684106912428,106.76849750277644,,,,401133,CN,0,1,"29.620684,106.768498,29.620122,106.773353,29.618033,106.772935,29.614924,106.772376,29.615309,106.768588,29.614360,106.768491,29.615412,106.760588,29.618089,106.763758,29.618490,106.767956,29.620684,106.768498",2024-11-11 12:24:00,CNOCQ-TIC,0,,18,21,2024-11-05 10:41:00,"CHINA, CHONGQING (SC), CHONGQING INTL CNTR TML LTD",NULL,0
1100191,CNOHG-TJX,,,28.32210541320127,112.92791295141654,,Chang Sha Shi,Hu Nan Sheng,410201,CN,0,1,"28.322105,112.927913,28.324461,112.932566,28.321490,112.935138,28.318912,112.930187,28.322105,112.927913",2024-07-10 13:54:00,CNOHG-TJX,0,,18,21,2024-07-10 13:54:00,"CHINA, CHANGSHA (HN), CHANGSHA JIXING CONT",NULL,0
1620468,CNOJA-DLS,,,22.608348249555945,114.23646080415034,Heng Yan Gong Lu,Shen Zhen Shi,Guang Dong Sheng,518115,CN,0,1,"22.608348,114.236461,22.607581,114.237546,22.605963,114.236249,22.607055,114.235048,22.608348,114.236461",2024-12-01 13:56:00,CNOJA-DLS,0,,18,12,2024-12-01 13:56:00,"CHINA, YANTIAN (GD), SHENZHEN GREATING FORTUNE CO.,LTD-OJA DEPOT",NULL,0
1082145,CNOJA-DWH,,,22.561085,114.240712,4 Lan Se Hai Yue Ju,Shen Zhen Shi,Guang Dong Sheng,,CN,0,1,"22.561085,114.240712,22.559893,114.241700,22.561230,114.243314,22.562470,114.242274,22.561085,114.240712",2024-07-10 06:47:00,CNOJA-DWH,0,,18,12,2024-07-09 09:33:00,"CHINA, YANTIAN, SHENZHEN WENHUI CONTAINER SERVICE CO.LTD",NULL,0
1154842,CNOJA-DYP,,,22.586659,114.261029,7 Nan Fang Ming Zhu Hua Yuan B Qu,Shen Zhen Shi,Guang Dong Sheng,518085,CN,0,1,"22.586659,114.261029,22.588520,114.262181,22.587620,114.264101,22.585939,114.262868,22.585903,114.262400,22.586362,114.261425,22.586659,114.261029",2024-09-09 10:35:00,CNOJA-DYP,0,,18,12,2024-07-16 11:55:00,"CHINA, YANTIAN (GD), YU PENG YANTIAN DEPOT",NULL,0
129817,CNOJA-TYI,,,22.570507,114.247179,,,,518081,CN,0,1,"22.570507,114.247179,22.583801,114.265510,22.583587,114.273246,22.566520,114.290430,22.565826,114.273608,22.575899,114.265601,22.566086,114.253040,22.570757,114.249504,22.566568,114.249674,22.562721,114.253070,22.556746,114.245681,22.559780,114.241639,22.561263,114.243441,22.562215,114.242525,22.563106,114.243509,22.563920,114.244618,22.563289,114.245139,22.566414,114.248389,22.567380,114.247053,22.570507,114.247179",2024-09-09 10:35:00,CNOJA-TYI,0,ZIM,18,21,2024-01-03 07:23:00,"CHINA, YANTIAN, YANTIAN INTERNATIONAL CONTAINER TERMINAL",NULL,NULL
130304,CNQIN-DQQ,,,36.042009576,120.175051718,Huaihe E Rd,Qing Dao Shi,Shan Dong Sheng,266599,CN,0,1,"36.042010,120.175052,36.039997,120.166812,36.032570,120.167413,36.030002,120.169644,36.031842,120.175567,36.042010,120.175052",2024-01-03 09:59:00,CNQIN-DQQ,0,ZIM,18,12,2024-01-03 09:59:00,"CHINA, QINGDAO (SD),QINGDAO LUHAI",NULL,NULL
1100283,CNQIN-DQQ2,,,36.06144182717789,120.1795274737247,S328,Qing Dao Shi,Shan Dong Sheng,266432,CN,0,1,"36.061442,120.179527,36.057743,120.180255,36.057250,120.176665,36.061783,120.175539,36.061442,120.179527",2024-07-10 14:04:00,CNQIN-DQQ2,0,,18,12,2024-07-10 14:04:00,"CHINA, QINGDAO (SD), QINGDAO LUHAI",NULL,0
131160,CNQIN-TQP,,,36.01392056482829,120.18283643274562,,Qing Dao Shi,Shan Dong Sheng,,CN,0,1,"36.013921,120.182836,35.989637,120.194450,35.990939,120.210651,36.017410,120.254749,36.022832,120.249044,36.025671,120.205610,36.013921,120.182836",2024-09-18 07:22:00,CNQIN-TQP,0,ZIM,18,21,2024-01-04 07:41:00,"CHINA, QINGDAO (SD), QINGDAOPORT (GROUP)C",NULL,NULL
129819,CNQIZ-TQZ,,,21.69706,108.635841,,,,,CN,0,1,"21.697060,108.635841,21.706153,108.657133,21.669360,108.676242,21.658367,108.656568,21.691457,108.630451,21.697060,108.635841",2024-11-11 12:43:00,CNQIZ-TQZ,0,ZIM,18,21,2024-01-03 07:23:00,"CHINA, QINZHOU, QINZHOU PORT",NULL,NULL
1314023,CNQNQ-TSA,,,30.504997047347416,117.07447458208111,52 人民东路,An Qing Shi,An Hui Sheng,246003,CN,0,1,"30.504997,117.074475,30.505715,117.076751,30.506261,117.081996,30.504431,117.082172,30.503673,117.075143,30.504572,117.074381,30.504997,117.074475",2024-08-07 09:41:00,CNQNQ-TSA,0,,18,21,2024-08-07 09:41:00,"CHINA, ANQING (AH), SINOTRANS ANQING TML",NULL,0
1530536,CNSAD-DGF,,,22.55634061308099,113.85698057553412,Jinwan Blvd,Shen Zhen Shi,Guang Dong Sheng,518133,CN,0,1,"22.556341,113.856981,22.556685,113.858431,22.553109,113.859607,22.552729,113.858088,22.556341,113.856981",2024-09-16 11:38:00,CNSAD-DGF,0,,18,12,2024-09-16 11:38:00,"CHINA, DA CHAN BAY (GD), SHENZHEN GREATING FORTUNE QIANHAI DEPOT",NULL,0
1594480,CNSAD-DYP,,,22.553432,113.855706,Wèi Mìng Míng De Dào Lù,Shen Zhen Shi,Guang Dong Sheng,518133,CN,0,1,"22.553432,113.855706,22.553918,113.857490,22.552634,113.858052,22.552206,113.856212,22.552187,113.855994,22.553419,113.855622,22.553432,113.855706",2024-11-11 12:25:00,CNSAD-DYP,0,,18,12,2024-11-07 06:50:00,"CHINA, DA CHAN BAY (GD), DACHAN YUPENG DEPOT",NULL,0
131700,CNSAD-TDB,,,22.55004376640828,113.84995721970108,Jin Gang Da Dao,Shen Zhen Shi,Guang Dong Sheng,518133,CN,0,1,"22.550044,113.849957,22.552776,113.860423,22.529121,113.867709,22.524430,113.857243,22.550044,113.849957",2024-01-04 12:58:00,CNSAD-TDB,0,ZIM,18,21,2024-01-04 12:58:00,"CHINA, DA CHAN BAY (GD), SHENZHEN DACHAN BAY MODERN PORT DEVELOPMENT CO.LTD",NULL,NULL
1314095,CNSHN-TGU,,,23.22656252392919,116.77760224480403,,Shan Tou Shi,Guang Dong Sheng,515071,CN,0,1,"23.226563,116.777602,23.225796,116.781274,23.219470,116.780126,23.220045,116.776434,23.226563,116.777602",2024-08-07 09:45:00,CNSHN-TGU,0,,18,21,2024-08-07 09:45:00,"CHINA, SHANTOU (GD), GUANGAO TERMINAL",NULL,0
1314177,CNSHS-TJZ,,,30.27491850315819,112.28778503664347,Lin Jiang Lu,Jing Zhou Shi,Hu Bei Sheng,434001,CN,0,1,"30.274919,112.287785,30.273752,112.289484,30.272790,112.287729,30.270757,112.288704,30.270240,112.287117,30.274510,112.284888,30.275339,112.286671,30.274919,112.287785",2024-08-07 09:50:00,CNSHS-TJZ,0,,18,21,2024-08-07 09:50:00,"CHINA, JINGZHOU (HUBEI), YICHANG PORT GROUP CONTAINER TERMINALS C",NULL,0
1530686,CNSKU-DBS,,,22.498719991645828,113.87467535376982,8 临海大道,Shen Zhen Shi,Guang Dong Sheng,518066,CN,0,1,"22.498720,113.874675,22.497373,113.875084,22.496026,113.870500,22.496587,113.869285,22.497679,113.870699,22.498720,113.874675",2024-09-16 12:56:00,CNSKU-DBS,0,,18,12,2024-09-16 12:56:00,"CHINA, SHEKOU (GD), BRIGANTINE SERVICES (SHENZHEN) CO LTD.",NULL,0
1561157,CNSKU-DYY,,,22.514015508889983,113.86667143515876,Gang Cheng Shi Qi Jie,Shen Zhen Shi,Guang Dong Sheng,518052,CN,0,1,"22.514016,113.866671,22.511914,113.867372,22.511656,113.866337,22.513672,113.865791,22.514016,113.866671",2024-10-10 13:32:00,CNSKU-DYY,0,,18,12,2024-10-10 13:32:00,"CHINA, SHEKOU (GD), SHENZHEN GREATING FORTUNE CO.,LTD-SKU DEPOT",NULL,0
137584,CNSKU-TCC,,,22.473665448357877,113.8719777751437,Ma Wan Da Dao,Shen Zhen Shi,Guang Dong Sheng,518066,CN,0,1,"22.473665,113.871978,22.475413,113.877022,22.470147,113.880756,22.457979,113.881775,22.457373,113.880344,22.473665,113.871978",2024-01-10 09:55:00,CNSKU-TCC,0,ZIM,18,21,2024-01-10 09:55:00,"CHINA, SHEKOU (GD), CCT Chiwan Container Terminal",NULL,NULL
1486738,CNSKU-TMN,,,22.495602201043713,113.86421227458028,Ma Wan Da Dao,Shen Zhen Shi,Guang Dong Sheng,518066,CN,0,1,"22.495602,113.864212,22.497076,113.868620,22.484447,113.872660,22.482339,113.868913,22.495602,113.864212",2024-09-08 07:40:00,CNSKU-TMN,0,,18,21,2024-09-08 07:40:00,"CHINA, SHEKOU (GD), MAWAN CONTAINER TERMINAL",NULL,0
127311,CNSKU-TSK,,,22.473834,113.900832,,Shen Zhen Shi,Guang Dong Sheng,,CN,0,1,"22.473834,113.900832,22.469489,113.905030,22.464679,113.898398,22.467782,113.896550,22.466075,113.894619,22.457696,113.896886,22.444738,113.886140,22.454282,113.884461,22.457773,113.886811,22.461653,113.885636,22.462584,113.887819,22.467860,113.886979,22.473834,113.900832",2024-07-03 11:35:00,CNSKU-TSK,0,ZIM,18,21,2023-12-31 10:43:00,"CHINA, SHEKOU (GD), SKU CONTAINER TERMIN",NULL,NULL
1323680,CNSNH-DBA,,,30.878999812073246,121.85794198780104,525 港辉路,,Shang Hai Shi,201308,CN,0,1,"30.879000,121.857942,30.876783,121.860832,30.876933,121.863312,30.875640,121.861887,30.874708,121.860647,30.882053,121.852653,30.882448,121.852725,30.879000,121.857942",2024-08-08 12:08:00,CNSNH-DBA,0,,18,12,2024-08-08 12:08:00,"CHINA, SHANGHAI (SH), BAIRUITE LOGISTICS DEVELOPMENT CO.,LTD",NULL,0
138648,CNSNH-DBR,,,31.324278,121.639717,66 华东路,,Shang Hai Shi,201208,CN,0,1,"31.324278,121.639717,31.324539,121.642115,31.321381,121.645557,31.316151,121.648377,31.315239,121.645764,31.324278,121.639717",2024-03-26 13:08:00,CNSNH-DBR,0,ZIM,18,12,2024-01-11 09:28:00,"CHINA, SHANGHAI (SH), BAIRUITE LOGISTICS DEVELOPMENT CO.,LIMITED",NULL,NULL
207950,CNSNH-DBR*,,,31.353245,121.544538,,,Shang Hai Shi,200432,CN,0,1,"31.353245,121.544538,31.353508,121.549745,31.351384,121.549398,31.351149,121.547301,31.352338,121.545440,31.353245,121.544538",2024-03-20 12:47:00,CNSNH-DBR*,0,,18,12,2024-03-20 12:46:00,"CHINA, SHANGHAI (SH), BAIRUITE LOGISTICS DEVELOPMENT CO.,LIMITED",NULL,NULL
201658,CNSNH-DGF,,,31.32828646025547,121.6363182413628,439 高翔环路,,Shang Hai Shi,201208,CN,0,1,"31.328286,121.636318,31.327319,121.637924,31.326958,121.637299,31.325283,121.637958,31.324980,121.637011,31.324142,121.637231,31.324157,121.635490,31.326381,121.634493,31.326539,121.635000,31.328286,121.636318",2024-03-11 06:47:00,CNSNH-DGF,0,ZIM,18,12,2024-03-11 06:47:00,"CHINA, SHANGHAI (SH), GREATING FORTUNE(SHANGHAI) LOGISTICS SERVICE CO.,L",NULL,NULL
1323696,CNSNH-DGL,,,30.88584600839667,121.85680069306892,25 广祥路,,Shang Hai Shi,201306,CN,0,1,"30.885846,121.856801,30.887802,121.859890,30.884169,121.864104,30.881766,121.861434,30.885846,121.856801",2024-08-08 12:12:00,CNSNH-DGL,0,,18,12,2024-08-08 12:12:00,"CHINA, SHANGHAI (SH), PORTWORLD LOGISTICS TECHNOLOGY CO.,LTD",NULL,0
202367,CNSNH-DGR,,,30.885779006254282,121.856481907528,25 广祥路,,Shang Hai Shi,201306,CN,0,1,"30.885779,121.856482,30.878690,121.864547,30.877319,121.862014,30.883840,121.854378,30.885779,121.856482",2024-03-12 13:42:00,CNSNH-DGR,0,ZIM,18,12,2024-03-12 13:42:00,"CHINA, SHANGHAI (SH), GREATING FORTUNE(SHANGHAI) LOGISTICS SERVICE CO.,L",NULL,NULL
890843,CNSNH-DH2,,,31.362955936972114,121.53974047232833,26 Ling Qiao Er Cun,,Shang Hai Shi,200131,CN,0,1,"31.362956,121.539740,31.361594,121.539666,31.361601,121.545149,31.363026,121.547985,31.364339,121.546900,31.362289,121.541927,31.363061,121.541409,31.362956,121.539740",2024-06-24 11:46:00,CNSNH-DH2,0,,18,12,2024-06-24 11:46:00,"CHINA, SHANGHAI (SH), S.H. HUAYU LOGISTICS CO., LTD (PU DONG)",NULL,0
1622140,CNSNH-DH2*,,,31.31046545984016,121.67029396970537,,,Shanghai,201208,CN,0,1,"31.310465,121.670294,31.307459,121.671956,31.307058,121.670634,31.309766,121.668802,31.310465,121.670294",2024-12-03 09:02:00,CNSNH-DH2*,0,,18,12,2024-12-03 09:02:00,"CHINA, SHANGHAI (SH), S.H. HUAYU LOGISTICS CO., LTD (PU DONG)",NULL,0
1594486,CNSNH-DH3,,,30.860284,121.80631,7 潮兴路,,Shang Hai Shi,201306,CN,0,1,"30.860284,121.806310,30.860352,121.808323,30.856520,121.808323,30.856948,121.806410,30.857033,121.806250,30.860284,121.806310",2024-11-11 12:27:00,CNSNH-DH3,0,,18,12,2024-11-07 06:56:00,"CHINA, SHANGHAI (SH), S.H. HUAYU LOGISTICS CO., LTD (LCG)",NULL,0
1323719,CNSNH-DJP,,,30.655473424477478,121.18209293017202,Shanggang Rd,Jia Xing Shi,Zhe Jiang Sheng,314203,CN,0,1,"30.655473,121.182093,30.656566,121.187427,30.651977,121.189685,30.650132,121.185085,30.655473,121.182093",2024-08-08 12:16:00,CNSNH-DJP,0,,18,12,2024-08-08 12:16:00,"CHINA, SHANGHAI (SH), SIPG PINGHU DUSHAN PORT CO.,LTD",NULL,0
1543039,CNSNH-DW1,,,33.323477,120.262119,,Yancheng,Jiangsu,224045,CN,0,1,"33.323477,120.262119,33.325560,120.265658,33.325880,120.265623,33.326128,120.266477,33.325734,120.266791,33.325589,120.266895,33.325793,120.267105,33.324962,120.267750,33.324467,120.266756,33.323710,120.267314,33.321510,120.263653,33.323477,120.262119",2024-09-26 12:28:00,CNSNH-DW1,0,,18,12,2024-09-25 13:58:00,"CHINA, SHANGHAI (SH), SIPG & SINOTRANS CNTR DEPOT CO.,LTD",NULL,0
166149,CNSNH-TED,,,31.340541859409754,121.64300700204444,,Pu Dong Xin Qu,Shang Hai Shi,201208,CN,0,1,"31.340542,121.643007,31.333924,121.654995,31.324058,121.647539,31.331052,121.636721,31.340542,121.643007",2024-02-11 06:39:00,CNSNH-TED,0,ZIM,18,21,2024-02-11 06:39:00,"CHINA, SHANGHAI (SH), SHANGHAI EAST CONTAINER TERMINAL(WGQ PHASE IV)",NULL,NULL
130400,CNSNH-TGD,,,30.621179,122.086175,Dong Hai Da Qiao,Zhou Shan Shi,Zhe Jiang Sheng,202461,CN,0,1,"30.621179,122.086175,30.616870,122.091141,30.611436,122.094051,30.606663,122.089912,30.604856,122.088162,30.609067,122.081697,30.618555,122.066296,30.623918,122.071135,30.621179,122.086175",2024-07-14 08:56:00,CNSNH-TGD,0,ZIM,18,21,2024-01-03 12:16:00,"CHINA, Shanghai, SHANGHAI GUANDONG INTL CONTAINER TERMINA",NULL,NULL
131705,CNSNH-TPA,,,31.37053200464669,121.58615974159335,,Pu Dong Xin Qu,Shang Hai Shi,200131,CN,0,1,"31.370532,121.586160,31.364478,121.594289,31.360732,121.591125,31.365977,121.582442,31.370532,121.586160",2024-01-04 13:09:00,CNSNH-TPA,0,ZIM,18,21,2024-01-04 13:09:00,"CHINA, SHANGHAI (SH), SHANGHAI PUDONG INTL CONTAINER TERMINAL(WGQ P I)",NULL,NULL
238108,CNSNH-TSH,,,30.654679,122.014623,Dong Hai Da Qiao,Zhou Shan Shi,Zhe Jiang Sheng,202461,CN,0,1,"30.654679,122.014623,30.659042,122.016561,30.658793,122.017793,30.658060,122.020981,30.657266,122.024821,30.656191,122.029930,30.655240,122.033444,30.653292,122.035490,30.652155,122.036215,30.649802,122.034476,30.651749,122.026452,30.654679,122.014623",2024-11-11 12:40:00,CNSNH-TSH,0,,18,21,2024-04-14 09:53:00,"CHINA, SHANGHAI (SH), SHANGHAI SHANGDONG INTL CONTAINER TERMIN",NULL,NULL
207961,CNSNH-TWB,,,31.36704,121.565896,,,Shang Hai Shi,200131,CN,0,1,"31.367040,121.565896,31.362119,121.577778,31.366660,121.581400,31.366828,121.582331,31.368840,121.583708,31.368998,121.583089,31.372872,121.586103,31.378278,121.572940,31.367040,121.565896",2024-04-16 13:59:00,CNSNH-TWB,0,,18,21,2024-03-25 06:49:00,"CHINA, SHANGHAI (SH), SHANGHAI PORT GROUP ZHENDONG CNTR TERL (WGQ P II)",NULL,NULL
120809,CNSNH-TWE,,,31.324149,121.648504,,,,,CN,0,1,"31.324149,121.648504,31.336878,121.658233,31.311659,121.699485,31.299154,121.689392,31.324149,121.648504",2024-12-03 08:09:00,CNSNH-TWE,0,ZIM,18,21,2023-12-24 08:52:00,"CHINA, SHANGHAI (SH), SHANGHAI MINGDONG CONTAINER TERMINAL (WG",NULL,NULL
238063,CNSNH-TYS,,,30.62583,122.054967,,Zhou Shan Shi,Zhe Jiang Sheng,202461,CN,0,1,"30.625830,122.054967,30.629828,122.059321,30.628129,122.064775,30.626439,122.066829,30.621121,122.060499,30.625830,122.054967",2024-11-11 12:41:00,CNSNH-TYS,0,,18,21,2024-04-14 09:01:00,"CHINA, SHANGHAI (SH), SHANGHAI SHENGDONG INTL CONTAINER TERMINAL 1",NULL,NULL
1487525,CNSUQ-TST,,,33.852484970073306,118.35394940179862,Lin Gang Lu,Su Qian Shi,Jiang Su Sheng,223803,CN,0,1,"33.852485,118.353949,33.848918,118.360669,33.848121,118.363700,33.844093,118.363650,33.851142,118.350110,33.852485,118.353949",2024-09-08 07:46:00,CNSUQ-TST,0,,18,21,2024-09-08 07:46:00,"CHINA, SUQIAN, SUQIAN TERMINAL",NULL,0
1244506,CNTAG-TCC,,,31.636756628136027,121.22804830985149,,Su Zhou Shi,Jiang Su Sheng,215424,CN,0,1,"31.636757,121.228048,31.633148,121.232001,31.628498,121.226174,31.631725,121.221915,31.636757,121.228048",2024-07-29 12:40:00,CNTAG-TCC,0,,18,21,2024-07-29 12:40:00,"CHINA, TAICANG, TAICANG CHANGHANG SHIPPING AGENCY CO.,LTD",NULL,0
1323763,CNTZO-DTG,,,32.241837827184966,119.8969047871289,,Tai Zhou Shi,Jiang Su Sheng,225327,CN,0,1,"32.241838,119.896905,32.239541,119.897591,32.239313,119.896453,32.240258,119.895470,32.241838,119.896905",2024-08-08 12:27:00,CNTZO-DTG,0,,18,12,2024-08-08 12:27:00,"CHINA, TAIZHOU (JS), TAIZHOU GAOGANG TAIGANGLIDA CONTAINER SERVICE CO.,",NULL,0
1138641,CNTZO-TTZ,,,32.23818235758547,119.89249513466962,,Tai Zhou Shi,Jiang Su Sheng,225327,CN,0,1,"32.238182,119.892495,32.239279,119.897562,32.237409,119.898134,32.235915,119.893139,32.238182,119.892495",2024-07-14 07:40:00,CNTZO-TTZ,0,,18,21,2024-07-14 07:40:00,"CHINA, TAIZHOU (JS), TAIZHOU PORT GROUP CO.LTD CNTR BRANCH",NULL,0
1620245,CNUHI-TIT,,,21.496437753487516,109.55059435982886,Wèi Mìng Míng De Dào Lù,Bei Hai Shi,Guang Xi Zhuang Zu Zi Zhi Qu,536017,CN,0,1,"21.496438,109.550594,21.493623,109.557798,21.488321,109.555488,21.491368,109.548297,21.496438,109.550594",2024-12-01 08:34:00,CNUHI-TIT,0,,18,21,2024-12-01 08:33:00,"CHINA, BEIHAI (GX), TIESHAN TERMINAL",NULL,0
1379899,CNWUH-TWI,,,30.673172585405375,114.54230525866454,,Wu Han Shi,Hu Bei Sheng,430415,CN,0,1,"30.673173,114.542305,30.678909,114.549569,30.674611,114.551259,30.669869,114.554125,30.665809,114.550550,30.664662,114.547024,30.673173,114.542305",2024-10-31 10:00:00,CNWUH-TWI,0,,18,21,2024-08-15 08:41:00,"CHINA, WUHAN (HB), WUHAN INTERNATIONAL CONTAINER CO.,LTD",NULL,0
680165,CNWUU-TWU,,,31.404184679274536,118.35040877661987,Gang Er Lu,Wu Hu Shi,An Hui Sheng,241007,CN,0,1,"31.404185,118.350409,31.404064,118.354223,31.400603,118.353969,31.401435,118.349533,31.404185,118.350409",2024-06-09 13:53:00,CNWUU-TWU,0,,18,21,2024-06-09 13:53:00,"CHINA, WUHU (AH), SINOTRANS ANHUI",NULL,0
1548510,CNWZU-DZY,,,27.89364334041271,121.11302389078963,Huo Ma Xian,Wen Zhou Shi,Zhe Jiang Sheng,325703,CN,0,1,"27.893643,121.113024,27.895242,121.115973,27.889543,121.119315,27.888187,121.116130,27.893643,121.113024",2024-09-29 12:31:00,CNWZU-DZY,0,,18,12,2024-09-29 12:31:00,"CHINA, WENZHOU (ZJ), WENZHOU PORT GROUP CO LTD ZYA PORT BRANC",NULL,0
1613012,CNWZU-TZY,,,27.895492732424827,121.11588673534413,Huo Ma Xian,Wen Zhou Shi,Zhe Jiang Sheng,325703,CN,0,1,"27.895493,121.115887,27.897997,121.117887,27.892652,121.121333,27.891453,121.118506,27.895493,121.115887",2024-11-24 12:49:00,CNWZU-TZY,0,,18,21,2024-11-24 07:42:00,"CHINA, WENZHOU (ZJ), WENZHOU PORT GROUP CO LTD ZYA PORT BRANC",NULL,0
1594490,CNXIA-DF2,,,24.450151,118.016432,498 建港路,Xia Men Shi,Fu Jian Sheng,361026,CN,0,1,"24.450151,118.016432,24.449287,118.020469,24.448192,118.020308,24.448959,118.016178,24.450151,118.016432",2024-11-11 12:26:00,CNXIA-DF2,0,,18,12,2024-11-07 07:01:00,"CHINA, XIAMEN (FJ), FUJIAN PORTEX LOG TEC CO. LTD HAICANG",NULL,0
891116,CNXIA-DGE,,,24.45657729502632,118.0139179386905,Shijia Rd,Xia Men Shi,Fu Jian Sheng,361026,CN,0,1,"24.456577,118.013918,24.456389,118.015183,24.454716,118.015188,24.454657,118.015750,24.453506,118.015691,24.453866,118.011259,24.455329,118.011454,24.455093,118.014018,24.456577,118.013918",2024-06-24 12:13:00,CNXIA-DGE,0,,18,12,2024-06-24 12:13:00,"CHINA, XIAMEN (FJ), GREATING FORTUNE (XIAMEN) CONTAINER SERVICE",NULL,0
1533354,CNXIA-DGE2,,,24.464582533469184,118.00745772985817,Changyuan Rd,Xia Men Shi,Fu Jian Sheng,361026,CN,0,1,"24.464583,118.007458,24.462667,118.011440,24.459911,118.009396,24.462874,118.006231,24.464583,118.007458",2024-09-18 07:48:00,CNXIA-DGE2,0,,18,12,2024-09-18 07:48:00,"CHINA, XIAMEN (FJ), GREATING FORTUNE (XIAMEN) CONTAINER SERVICE",NULL,0
891146,CNXIA-DGF,,,24.528970857445216,118.090943354118,,Xia Men Shi,Fu Jian Sheng,361006,CN,0,1,"24.528971,118.090943,24.529340,118.093464,24.528992,118.094154,24.525716,118.091633,24.526169,118.090300,24.528971,118.090943",2024-06-24 12:17:00,CNXIA-DGF,0,,18,12,2024-06-24 12:17:00,"CHINA, XIAMEN (FJ), SINOTRANS XIAMEN GREATING-FORTUNE",NULL,0
1494453,CNXIA-DGR,,,24.54430103506249,118.10206665458747,4-1 渔港路,Xia Men Shi,Fu Jian Sheng,361011,CN,0,1,"24.544301,118.102067,24.542843,118.103422,24.541052,118.102057,24.539459,118.099593,24.541178,118.097793,24.544301,118.102067",2024-09-09 13:43:00,CNXIA-DGR,0,,18,12,2024-09-09 13:43:00,"CHINA, XIAMEN (FJ), GREATING FORTUNE (XIAMEN) CONTAINER SERVICE",NULL,0
166557,CNXIA-DHT,,,24.45853797802134,118.00485077004811,89 建港路,Xia Men Shi,Fu Jian Sheng,361026,CN,0,1,"24.458538,118.004851,24.460215,118.006455,24.458768,118.008550,24.456956,118.006931,24.458538,118.004851",2024-02-11 14:34:00,CNXIA-DHT,0,ZIM,18,12,2024-02-11 14:34:00,"CHINA, XIAMEN (FJ), XIAMEN CIMC HAI TOU LOGISTICS CO., LTD.",NULL,NULL
1533356,CNXIA-DHT2,,,24.46624029766724,118.0089170460007,6 Hai Jing Xi Er Lu,Xia Men Shi,Fu Jian Sheng,361026,CN,0,1,"24.466240,118.008917,24.464702,118.012148,24.462791,118.011453,24.464602,118.007445,24.466240,118.008917",2024-09-18 07:49:00,CNXIA-DHT2,0,,18,12,2024-09-18 07:49:00,"CHINA, XIAMEN (FJ), XIAMEN CIMC HAI TOU LOGISTICS CO., LTD. Depot",NULL,0
1079370,CNXIA-DSL,,,24.538892,118.09249,,Xia Men Shi,Fu Jian Sheng,,CN,0,1,"24.538892,118.092490,24.540544,118.094039,24.539183,118.095588,24.539339,118.094958,24.538853,118.094413,24.537832,118.093793,24.537920,118.093644,24.538892,118.092490",2024-07-10 06:47:00,CNXIA-DSL,0,,18,12,2024-07-09 06:54:00,"CHINA, XIAMEN (FJ), XIAMEN C&D CONTAINER TERMINAL",NULL,0
891028,CNXIA-DXG,,,24.45690444053504,118.0088947169175,210 建港路,Xia Men Shi,Fu Jian Sheng,361026,CN,0,1,"24.456904,118.008895,24.456212,118.010080,24.455945,118.011386,24.453906,118.011003,24.454484,118.009284,24.455552,118.007619,24.456904,118.008895",2024-06-24 12:07:00,CNXIA-DXG,0,,18,12,2024-06-24 12:07:00,"CHINA, XIAMEN (FJ), SINOTRANS XIAMEN GREATING-FORTUNE REFRIGERATION EN",NULL,0
1492912,CNXIA-DXG2,,,24.4667680212725,117.99885097126122,206 Jin Li Cun Bei Pian,Xia Men Shi,Fu Jian Sheng,361026,CN,0,1,"24.466768,117.998851,24.465911,118.000394,24.462156,117.997835,24.463081,117.996276,24.466768,117.998851",2024-09-09 06:11:00,CNXIA-DXG2,0,,18,12,2024-09-09 06:11:00,"CHINA, XIAMEN (FJ), SINOTRANS XIAMEN GREATING-FORTUNE REFRIGERATION EN",NULL,0
149517,CNXIA-DXS,,,24.457138628754834,118.01182766943464,Baoshui Rd,Xia Men Shi,Fu Jian Sheng,361026,CN,0,1,"24.457139,118.011828,24.456716,118.013861,24.455142,118.013942,24.455389,118.011443,24.457139,118.011828",2024-02-01 09:53:00,CNXIA-DXS,0,ZIM,18,12,2024-02-01 09:53:00,"CHINA, XIAMEN (FJ), XIAMEN C&D CONTAINER TERMINAL _CO.,LTD",NULL,NULL
133672,CNXIA-THR,,,24.453694,118.003906,177 Hou Jing Cun Nei Keng She,Xia Men Shi,Fu Jian Sheng,361026,CN,0,1,"24.453694,118.003906,24.452133,118.010483,24.446842,118.009026,24.448043,118.002053,24.453694,118.003906",2024-07-09 04:37:00,CNXIA-THR,0,ZIM,18,21,2024-01-07 07:36:00,"CHINA, XIAMEN (FJ), XIAMEN HAIRUN CONTAINER TERMINAL",NULL,NULL
1314642,CNXIA-THT,,,24.521211860104785,118.0861746076763,,Xia Men Shi,Fu Jian Sheng,,CN,0,1,"24.521212,118.086175,24.522444,118.081649,24.510407,118.078013,24.501607,118.073100,24.500868,118.074725,24.505339,118.079908,24.510055,118.082925,24.521212,118.086175",2024-08-07 11:05:00,CNXIA-THT,0,,18,21,2024-08-07 11:05:00,"CHINA, XIAMEN (FJ), XIAMEN HAITIAN TERM",NULL,0
1077519,CNXIA-TIC,,,24.44709,118.009464,Jian Gang Lu,Xia Men Shi,Fu Jian Sheng,361026,CN,0,1,"24.447090,118.009464,24.451745,118.010548,24.450537,118.016512,24.448939,118.016100,24.448153,118.020235,24.444712,118.019496,24.445850,118.013605,24.446609,118.010437,24.446761,118.009381,24.447090,118.009464",2024-11-07 07:00:00,CNXIA-TIC,0,,18,21,2024-07-09 04:39:00,"CHINA, XIAMEN (FJ), XIAMEN INT CNTR TML",NULL,0
142155,CNXIA-TXO,,,24.457694836972777,117.98303026212079,203 海沧大街,Xia Men Shi,Fu Jian Sheng,361026,CN,0,1,"24.457695,117.983030,24.452417,117.981759,24.457232,117.959073,24.462278,117.960091,24.457695,117.983030",2024-01-14 12:04:00,CNXIA-TXO,0,ZIM,18,21,2024-01-14 12:04:00,"CHINA, XIAMEN (FJ), XIAMEN OCEAN GATE CONTAINER TERMINAL CO.,LTD",NULL,NULL
890917,CNXIA-TXS,,,24.44138211771852,118.0375995212014,,Xia Men Shi,Fu Jian Sheng,361026,CN,0,1,"24.441382,118.037600,24.446011,118.037591,24.446343,118.030853,24.443730,118.027885,24.442812,118.027851,24.443005,118.024453,24.442874,118.024258,24.442010,118.025461,24.441382,118.037600",2024-06-24 11:56:00,CNXIA-TXS,0,,18,21,2024-06-24 11:56:00,"CHINA, XIAMEN (FJ), XIAMEN SONGYU TERMINAL",NULL,0
1351852,CNXIO-TXP,,,22.668472,113.262098,28 小榄大道北,Zhong Shan Shi,Guang Dong Sheng,528415,CN,0,1,"22.668472,113.262098,22.667940,113.260235,22.670751,113.259041,22.671572,113.260732,22.670171,113.261501,22.669103,113.261994,22.668525,113.262279,22.668472,113.262098",2024-11-11 13:15:00,CNXIO-TXP,0,,18,21,2024-08-12 05:54:00,"CHINA, XIAOLAN, XIOLAN PORT TERMINAL",NULL,0
1323863,CNXNG-DEX,,,39.031799267499565,117.7457057321588,Yuejin Rd,,Tian Jin Shi,300456,CN,0,1,"39.031799,117.745706,39.029247,117.752689,39.022714,117.748826,39.025459,117.741635,39.031799,117.745706",2024-08-08 12:42:00,CNXNG-DEX,0,,18,12,2024-08-08 12:42:00,"CHINA, TIANJIN XINGANG PT (TJ), TIANJIN EX INTERNATIONAL LOGISTICS CO.",NULL,0
928829,CNXNG-DKY,,,39.032164,117.787763,Mei Zhou Lu,Bin Hai Xin Qu,Tian Jin Shi,300456,CN,0,1,"39.032164,117.787763,39.032453,117.789575,39.028088,117.790898,39.026494,117.792066,39.023938,117.792594,39.023451,117.790295,39.032164,117.787763",2024-06-27 10:26:00,CNXNG-DKY,0,,18,12,2024-06-27 10:26:00,"CHINA, TIANJIN XINGANG PT (TJ), TIANJIN KEYUN LOGISTICS CO.,LTD",NULL,0
128374,CNXNG-DPM,,,39.024968,117.741679,,,Tian Jin Shi,300456,CN,0,1,"39.024968,117.741679,39.019512,117.738420,39.014404,117.752155,39.020035,117.755544,39.024968,117.741679",2024-08-08 12:44:00,CNXNG-DPM,0,ZIM,18,12,2024-01-02 06:34:00,"CHINA, TIANJIN XINGANG, TIANJIN PORT MASTER CO,LTD",NULL,NULL
708516,CNXNG-DTH,,,39.05530211989205,117.7382681699255,,Bin Hai Xin Qu,Tian Jin Shi,300453,CN,0,1,"39.055302,117.738268,39.053738,117.742664,39.052210,117.742241,39.053924,117.737330,39.055302,117.738268",2024-06-11 07:37:00,CNXNG-DTH,0,,18,12,2024-06-11 07:37:00,"CHINA, TIANJIN XINGANG PT (TJ), TIANJIN HARVEST INT",NULL,0
128194,CNXNG-DTZ,,,39.04121032948731,117.73903176173673,Dong Hai Lu,Bin Hai Xin Qu,Tian Jin Shi,300456,CN,0,1,"39.041210,117.739032,39.042981,117.734134,39.046495,117.735379,39.041679,117.749970,39.034212,117.746708,39.037279,117.738468,39.041210,117.739032",2024-10-31 10:05:00,CNXNG-DTZ,0,ZIM,18,12,2024-01-01 15:06:00,"CHINA, TIANJIN XINGANG PT (TJ), TIANJIN ZHAOHUA ZHONGDIAN LOGISTICS CO., LTD",NULL,NULL
1323902,CNXNG-DZH,,,39.01270278662608,117.7345448991266,,,Tianjin,300456,CN,0,1,"39.012703,117.734545,39.011575,117.739984,39.003003,117.734848,39.004923,117.730492,39.010177,117.733765,39.012703,117.734545",2024-08-08 12:49:00,CNXNG-DZH,0,,18,12,2024-08-08 12:49:00,"CHINA, TIANJIN XINGANG PT (TJ), TIANJIN ZHAOHUAZHONGDIAN LOGISTICS- EAST",NULL,0
891242,CNXNG-TPA,,,38.99826695181525,117.76707383581771,66 东方大道,,Tian Jin Shi,300456,CN,0,1,"38.998267,117.767074,38.999601,117.775362,38.989895,117.778283,38.988817,117.772332,38.993812,117.770433,38.994663,117.767804,38.998267,117.767074",2024-06-24 12:23:00,CNXNG-TPA,0,,18,21,2024-06-24 12:23:00,"CHINA, TIANJIN XINGANG PT (TJ), TIANJIN PORT ALLIANCE INTL CNTR TML",NULL,0
134794,CNXNG-TPC,,,39.00866099521974,117.78519124481369,,Bin Hai Xin Qu,Tian Jin Shi,300456,CN,0,1,"39.008661,117.785191,39.010924,117.797882,38.988936,117.804435,38.987966,117.790496,39.008661,117.785191",2024-01-08 10:52:00,CNXNG-TPC,0,ZIM,18,21,2024-01-08 10:52:00,"CHINA, TIANJIN XINGANG PT (TJ), TIANJIN PORT PACIFIC INTL CONTAINER TERMINAL",NULL,NULL
1497224,CNXNG-TPE,,,39.00762919956827,117.76438708308353,Xin'gang Blvd,,Tian Jin Shi,300456,CN,0,1,"39.007629,117.764387,39.009148,117.772727,38.999847,117.775449,38.998247,117.766830,39.007629,117.764387",2024-09-10 07:11:00,CNXNG-TPE,0,,18,21,2024-09-10 07:11:00,"CHINA, TIANJIN XINGANG PT (TJ), TIANJIN PORT EUROASIA INTERNATIONAL CONTAINER TERM",NULL,0
891235,CNXNG-TPS,,,39.01751975228939,117.7610876152134,,,Tianjin,300456,CN,0,1,"39.017520,117.761088,39.018796,117.769047,39.009236,117.772516,39.007703,117.764009,39.017520,117.761088",2024-06-24 12:22:00,CNXNG-TPS,0,,18,21,2024-06-24 12:22:00,"CHINA, TIANJIN XINGANG PT (TJ), TIANJIN PORT SECOND CONTAINER TERMINAL C",NULL,0
503901,CNYAN-TYG,,,19.716803427587692,109.1687088132976,,Dan Zhou Shi,Hai Nan Sheng,,CN,0,1,"19.716803,109.168709,19.721570,109.173772,19.718985,109.176604,19.713936,109.171155,19.716803,109.168709",2024-05-26 13:33:00,CNYAN-TYG,0,,18,21,2024-05-26 13:33:00,"CHINA, YANGPU GANG (HI), HAINAN YANGPU PORT",NULL,0
1314651,CNYAZ-TYZ,,,32.27954576471764,119.45126483210231,20 古渡路,Yang Zhou Shi,Jiang Su Sheng,225102,CN,0,1,"32.279546,119.451265,32.279811,119.454353,32.274333,119.455196,32.274123,119.452086,32.279546,119.451265",2024-08-07 11:08:00,CNYAZ-TYZ,0,,18,21,2024-08-07 11:08:00,"CHINA, YANG ZHOU, YANGZHOU YUANYANG",NULL,0
1538582,CNYEY-TCL,,,29.47670608757319,113.18086418680122,,Yue Yang Shi,Hu Nan Sheng,414001,CN,0,1,"29.476706,113.180864,29.473141,113.185505,29.464069,113.176860,29.468229,113.172537,29.471596,113.176086,29.473299,113.173584,29.475795,113.175950,29.473973,113.178407,29.476706,113.180864",2024-09-22 12:48:00,CNYEY-TCL,0,,18,21,2024-09-22 12:48:00,"CHINA, YUEYANG (HUNAN), CHENGLINGJI PORT CO.,LTD.",NULL,0
925088,CNYIW-DYI,,,30.098389014276776,120.2582812248749,,Hangzhou,Zhejiang,311251,CN,0,1,"30.098389,120.258281,30.098111,120.259685,30.096223,120.260751,30.092066,120.260091,30.091861,120.257385,30.098389,120.258281",2024-06-27 06:36:00,CNYIW-DYI,0,,18,12,2024-06-27 06:36:00,"CHINA, YIWU, YIWU INTERNATIONAL LOGISTICS CENTER",NULL,0
1538576,CNYIW-DYW,,,29.354545048320176,120.09451582695226,,Jinhua,Zhejiang,322023,CN,0,1,"29.354545,120.094516,29.354417,120.094777,29.358098,120.096963,29.356310,120.100926,29.357492,120.101514,29.359009,120.096219,29.356502,120.095549,29.354545,120.094516",2024-09-22 12:36:00,CNYIW-DYW,0,,18,12,2024-09-22 12:36:00,"CHINA, YIWU, YIWU RAILWAY DEPOT",NULL,0
1613016,CNYND-TCL,,,30.842028,104.310453,,Chengdu,Sichuan,610306,CN,0,1,"30.842028,104.310453,30.842776,104.310340,30.842928,104.312130,30.842159,104.312222,30.842028,104.310453",2024-11-24 12:58:00,CNYND-TCL,0,,18,21,2024-11-24 07:51:00,"CHINA, CHENGDU (SC), CHENG DU LONG-DISTANCE LANGBO CONTAINE TRANSPORT C",NULL,0
149519,CNZAP-TZI,,,30.59602089345948,121.08430317762407,Binhai Blvd,Jia Xing Shi,Zhe Jiang Sheng,314201,CN,0,1,"30.596021,121.084303,30.591591,121.081215,30.590296,121.070448,30.593601,121.069735,30.595442,121.070527,30.596702,121.078484,30.596021,121.084303",2024-02-01 10:13:00,CNZAP-TZI,0,ZIM,18,21,2024-02-01 10:13:00,"CHINA, ZHAPU (ZJ), ZHAPU INTERNATIONAL CONTAINER TERMINAL LTD",NULL,NULL
1487858,CNZEN-TZJ,,,32.190180454885436,119.62460803890048,Zhu Zhao Lu,Zhen Jiang Shi,Jiang Su Sheng,212006,CN,0,1,"32.190180,119.624608,32.191142,119.632003,32.192907,119.638220,32.187925,119.640307,32.185845,119.634048,32.183293,119.625310,32.190180,119.624608",2024-09-08 08:02:00,CNZEN-TZJ,0,,18,21,2024-09-08 08:02:00,"CHINA, ZHENJIANG (JS), ZHENJIANG PORT CNTR",NULL,0
1606582,CNZHU-TZH,,,22.16638782006582,113.45553493828277,Wèi Mìng Míng De Dào Lù,Zhu Hai Shi,Guang Dong Sheng,,CN,0,1,"22.166388,113.455535,22.164537,113.458088,22.160686,113.454987,22.163814,113.450544,22.165796,113.453086,22.166388,113.455535",2024-11-18 14:21:00,CNZHU-TZH,0,,18,21,2024-11-18 14:21:00,"CHINA, ZHUHAI (GD), ZHUHAI INTERNATIONAL CONTAINER TERMINALS HONGWAN",NULL,0
1314720,CNZJG-TZG,,,31.96754598936218,120.41008888082143,,Su Zhou Shi,Jiang Su Sheng,215633,CN,0,1,"31.967546,120.410089,31.963331,120.408682,31.961896,120.419360,31.961803,120.421942,31.966137,120.423019,31.967442,120.422634,31.967546,120.410089",2024-08-07 11:33:00,CNZJG-TZG,0,,18,21,2024-08-07 11:33:00,"CHINA, ZHANGJIAGANG (JS), WIN HANVERKY",NULL,0
1314739,CNZSH-TWM,,,22.57313806615737,113.48754304763094,,Zhong Shan Shi,Guang Dong Sheng,528437,CN,0,1,"22.573138,113.487543,22.573203,113.491103,22.571371,113.491295,22.571419,113.489626,22.569743,113.489622,22.569775,113.486833,22.572744,113.486874,22.572750,113.487562,22.573138,113.487543",2024-08-07 11:39:00,CNZSH-TWM,0,,18,21,2024-08-07 11:39:00,"CHINA, ZHONGSHAN (GD), ZHONGSHAN TERMINAL",NULL,0
1497225,CNZSH-TZS,,,22.573344,113.474087,Zhongshan Harbour,Zhong Shan Shi,CN,528402,CN,0,1,"22.573344,113.474087,22.571764,113.473881,22.571568,113.477400,22.570075,113.477205,22.569931,113.479261,22.571406,113.479300,22.570450,113.482340,22.573024,113.483203,22.573344,113.474087",2024-10-31 10:09:00,CNZSH-TZS,0,,18,21,2024-09-10 07:14:00,"CHINA, ZHONGSHAN (GD), ZHONGSHAN CONT TERMI",NULL,0
770929,COBNV-DAG,,,3.8840128221734034,-76.96842456668867,Vía alterna Buenaventura,Buenaventura,Valle del Cauca,764503,CO,0,1,"3.884013,-76.968425,3.883821,-76.967400,3.881840,-76.967015,3.882335,-76.967835,3.882527,-76.968604,3.884013,-76.968425",2024-06-16 08:36:00,COBNV-DAG,0,,18,12,2024-06-16 08:36:00,"COLOMBIA, BUENAVENTURA, AGUNSA COLOMBIA SAS DEPOT",NULL,0
294078,COBNV-TAP,,,3.892113,-77.046735,Vía sin nombre,Buenaventura,Valle del Cauca,764508,CO,0,1,"3.892113,-77.046735,3.894374,-77.045174,3.892105,-77.041921,3.889488,-77.043805,3.886431,-77.042914,3.884688,-77.043484,3.884605,-77.044380,3.885993,-77.045100,3.887430,-77.045302,3.887477,-77.045855,3.888122,-77.046160,3.889260,-77.044967,3.891169,-77.045390,3.892113,-77.046735",2024-06-16 08:46:00,COBNV-TAP,0,,18,21,2024-05-08 13:41:00,"COLOMBIA, BUENAVENTURA, APM TERMINAL",NULL,0
1492852,COBNV-TSP,,,3.8929187912858794,-77.08142771140909,#1-03 Cl. 2,Buenaventura,Valle del Cauca,764501,CO,0,1,"3.892919,-77.081428,3.894121,-77.067938,3.889034,-77.067475,3.889011,-77.070140,3.892318,-77.071438,3.891369,-77.080477,3.892919,-77.081428",2024-09-09 05:23:00,COBNV-TSP,0,,18,21,2024-09-09 05:23:00,"COLOMBIA, BUENAVENTURA, SPR BUENAVENTURA",NULL,0
450750,COBOG-DSI,,,4.733156564523611,-74.23910417532655,Via el Charquito,Madrid,Cundinamarca,250038,CO,0,1,"4.733157,-74.239104,4.731643,-74.238305,4.729810,-74.240281,4.731449,-74.241000,4.733157,-74.239104",2024-05-22 08:23:00,COBOG-DSI,0,,18,12,2024-05-22 08:23:00,"COLOMBIA, BOGOTA, SIMARITIMA BOGOTA DEPOT",NULL,0
1561077,COBQA-TBQ,,,10.97080609864031,-74.76184734609565,76-123 Cra. 54,Barranquilla,Atlántico,080020,CO,0,1,"10.970806,-74.761847,10.970879,-74.758897,10.964650,-74.758675,10.964419,-74.760741,10.967866,-74.760918,10.967735,-74.762482,10.969242,-74.762585,10.969300,-74.762378,10.970009,-74.762526,10.970082,-74.761921,10.970806,-74.761847",2024-10-10 12:33:00,COBQA-TBQ,0,,18,21,2024-10-10 12:33:00,"COLOMBIA, BARRANQUILLA, BARRANQUILLA TERMINAL",NULL,0
930495,COCLN-DSI,,,3.5420315125892046,-76.49829299508811,12-99 Cra. 23,Yumbo,Valle del Cauca,760502,CO,0,1,"3.542032,-76.498293,3.541133,-76.498579,3.540512,-76.496988,3.541438,-76.496649,3.542032,-76.498293",2024-06-27 12:58:00,COCLN-DSI,0,,18,12,2024-06-27 12:58:00,"COLOMBIA, CALI, SIMARITIMA CALI DEPOT",NULL,0
1525347,COCRT-DCC,,,10.308969494109903,-75.48615992389047,Vía a Mamonal,Provincia de Cartagena,Bolívar,130009,CO,0,1,"10.308969,-75.486160,10.308892,-75.484019,10.306210,-75.484062,10.306233,-75.486267,10.308969,-75.486160",2024-09-15 12:06:00,COCRT-DCC,0,,18,12,2024-09-15 12:06:00,"COLOMBIA, CARTAGENA, CENTRO LOGISTICO CY",NULL,0
207978,COCRT-TBQ,,,10.408648286504814,-75.53434355606224,25-30 Cl. 26,Cartagena de Indias,Bolívar,130001,CO,0,1,"10.408648,-75.534344,10.408505,-75.532357,10.406568,-75.528765,10.404811,-75.528966,10.405833,-75.539284,10.407035,-75.538773,10.408648,-75.534344",2024-03-26 11:41:00,COCRT-TBQ,0,,18,21,2024-03-26 11:41:00,"COLOMBIA, CARTAGENA, SOCIEDAD PORTUARIA REGIONAL DE CARTAGENA",NULL,NULL
148777,COCRT-TCT,,,10.382664,-75.512862,,Cartagena de Indias,Bolívar,,CO,0,1,"10.382664,-75.512862,10.384365,-75.508548,10.380351,-75.505817,10.379987,-75.504200,10.374069,-75.506232,10.374322,-75.509710,10.382664,-75.512862",2024-08-07 11:45:00,COCRT-TCT,0,ZIM,18,21,2024-01-31 08:40:00,"COLOMBIA, CARTAGENA, TERMINAL DE CONTENEDORES DE CARTAGENA",NULL,NULL
770956,COMDE-DSI,,,6.0766270218501575,-75.63039445946843,134 Sur776 Cra. 45,Caldas,Antioquia,055447,CO,0,1,"6.076627,-75.630394,6.075640,-75.629402,6.072829,-75.629395,6.072859,-75.630454,6.076627,-75.630394",2024-06-16 08:40:00,COMDE-DSI,0,,18,12,2024-06-16 08:40:00,"COLOMBIA, MEDELLIN, SIMARITIMA MEDELLIN DEPOT",NULL,0
134792,CROIU-TAP,,,10.015521542677988,-83.10075825228486,,Limón,Limón,,CR,0,1,"10.015522,-83.100758,10.015595,-83.098317,10.013806,-83.093389,10.009745,-83.094893,10.012296,-83.102857,10.015522,-83.100758",2024-01-08 10:39:00,CROIU-TAP,0,ZIM,18,21,2024-01-08 10:39:00,"COSTA RICA, MOIN, APM Terminals Moin S.A.",NULL,NULL
1620227,CRPLN-DSE,,,9.996447915831723,-83.15444093770935,,Limon,Limón Province,,CR,0,1,"9.996448,-83.154441,9.995865,-83.153073,9.994390,-83.153247,9.994650,-83.154884,9.996078,-83.155395,9.996875,-83.154494,9.996448,-83.154441",2024-12-01 08:09:00,CRPLN-DSE,0,,18,12,2024-12-01 08:09:00,"COSTA RICA, PUERTO LIMON, SERVICIOS DE TRANSPORTE NAVIERO SETRANA S.A.",NULL,0
1451130,CRSAN-DTH,,,9.952935652040452,-84.10075997345135,,San José,San José Province,,CR,0,1,"9.952936,-84.100760,9.952910,-84.100078,9.952370,-84.100078,9.952335,-84.098873,9.953693,-84.098622,9.953824,-84.100668,9.952936,-84.100760",2024-09-01 07:27:00,CRSAN-DTH,0,,18,12,2024-09-01 07:27:00,"COSTA RICA, SAN JOSE, TRANSPORTES HYH DEPOT SAN JOSE",NULL,0
916781,CWWTD-TWI,,,12.114975787103091,-68.916664512774,,Willemstad,Curaçao,,CW,0,1,"12.114976,-68.916665,12.114509,-68.916683,12.110599,-68.914114,12.110294,-68.911729,12.118348,-68.910463,12.118312,-68.911399,12.114474,-68.912115,12.114976,-68.916665",2024-06-26 12:31:00,CWWTD-TWI,0,,18,21,2024-06-26 12:31:00,"CURACAO, WILLEMSTAD-CURACAO, WILLEMSTAD TERMINAL",NULL,0
129840,CYLIM-TLM,,,34.655094,33.011599,Eleaton,Limassol,Limassol,3046,CY,0,1,"34.655094,33.011599,34.655021,33.016493,34.647800,33.016049,34.647956,33.007056,34.644132,33.006977,34.644039,33.004318,34.647808,33.005643,34.655094,33.011599",2024-07-11 07:59:00,CYLIM-TLM,0,ZIM,18,21,2024-01-03 08:44:00,"CYPRUS, LIMASSOL, LIMASSOL PORT",NULL,NULL
1524992,CZCTR-DMT,,,49.886879139318125,16.457693361991176,Topolová,Okres Ústí nad Orlicí,Pardubický kraj,560 02,CZ,0,1,"49.886879,16.457693,49.879102,16.465298,49.878739,16.464292,49.881173,16.459533,49.885536,16.457374,49.886879,16.457693",2024-09-15 09:38:00,CZCTR-DMT,0,,18,12,2024-09-15 09:38:00,"CZECH REPUBLIC, CESKA TREBOVA, METRANS A.S. CESKA TREBOVA",NULL,0
1622298,DKAAR-TAR,,,56.15858213066153,10.246828056239167,43C Østhavnsvej,Aarhus,DK,8000,DK,0,1,"56.158582,10.246828,56.150176,10.256931,56.138748,10.227300,56.140739,10.215842,56.158582,10.246828",2024-12-03 11:57:00,DKAAR-TAR,0,,18,21,2024-12-03 11:57:00,"DENMARK, AARHUS, APM TERMINALS",NULL,0
1525352,DOCKE-DEQ,,,18.447285939107573,-69.65337972414655,Carr Puerto Caucedo,Andrés,Santo Domingo,,DO,0,1,"18.447286,-69.653380,18.447009,-69.651929,18.445258,-69.649678,18.444078,-69.649565,18.441953,-69.649762,18.441792,-69.652108,18.445527,-69.653304,18.446816,-69.653433,18.447286,-69.653380",2024-09-15 12:12:00,DOCKE-DEQ,0,,18,12,2024-09-15 12:12:00,"DOMINICAN REPUBLIC, CAUCEDO, Equiport Terminal Caucedo Depot",NULL,0
128398,DOCKE-TCO,,,18.431533,-69.64089,,Andrés,Santo Domingo,,DO,0,1,"18.431533,-69.640890,18.419958,-69.638986,18.420631,-69.627202,18.426644,-69.626604,18.431546,-69.632137,18.431533,-69.640890",2024-09-15 12:12:00,DOCKE-TCO,0,ZIM,18,21,2024-01-02 08:50:00,"DOMINICAN REPUBLIC, CAUCEDO, CAUCEDO TERMINAL",NULL,NULL
1323917,DORHA-DPA,,,18.42943254962944,-70.00257366637915,,Santo Domingo,Santo Domingo,,DO,0,1,"18.429433,-70.002574,18.428492,-70.000768,18.426260,-70.000379,18.426335,-70.001504,18.426445,-70.002434,18.429433,-70.002574",2024-08-08 12:53:00,DORHA-DPA,0,,18,12,2024-08-08 12:53:00,"DOMINICAN REPUBLIC, RIO HAINA (PORT OF), PATIO B & R HAINA DEPOT",NULL,0
133684,DORHA-TRH,,,18.425965871125243,-70.01795461572605,Los Rieles,Bajos de Haina,San Cristóbal,91000,DO,0,1,"18.425966,-70.017955,18.427384,-70.015848,18.423838,-70.011634,18.421130,-70.014217,18.422420,-70.016120,18.420421,-70.018770,18.425966,-70.017955",2024-01-07 08:40:00,DORHA-TRH,0,ZIM,18,21,2024-01-07 08:40:00,"Dominican Rep., RIO HAINA, RIO HAINA TERMINAL",NULL,NULL
149087,ECGYL-DAR,,,-2.082849,-79.952956,Calle 27 No Y Av. 57,Guayaquil,Guayas,,EC,0,1,"-2.082849,-79.952956,-2.085163,-79.950927,-2.086008,-79.951773,-2.084874,-79.953321,-2.083959,-79.954917,-2.083229,-79.954235,-2.080449,-79.949566,-2.079464,-79.950277,-2.079968,-79.951387,-2.078229,-79.952410,-2.077007,-79.949929,-2.079779,-79.948290,-2.082849,-79.952956",2024-11-25 09:28:00,ECGYL-DAR,0,ZIM,18,12,2024-01-31 11:01:00,"ECUADOR, Guayaquil, ARETINA S.A. DEPOT",NULL,NULL
130405,ECGYL-TCT,,,-2.2786535285080585,-79.91210277687034,090506 Av. 25 de Julio,Guayaquil,Guayas,090112,EC,0,1,"-2.278654,-79.912103,-2.275669,-79.910306,-2.277469,-79.907642,-2.275725,-79.905830,-2.280455,-79.898304,-2.283944,-79.898828,-2.283337,-79.905033,-2.278654,-79.912103",2024-01-03 13:05:00,ECGYL-TCT,0,ZIM,18,21,2024-01-03 12:16:00,"ECUADOR, Guayaquil, CONTECON GUAYAQUIL SA TERMINAL",NULL,NULL
454668,ECQUT-DAR,,,-0.3744065757278463,-78.52997062112902,,La Joya,Pichincha,,EC,0,1,"-0.374407,-78.529971,-0.374648,-78.528663,-0.376939,-78.529276,-0.377017,-78.530427,-0.374407,-78.529971",2024-05-22 12:27:00,ECQUT-DAR,0,,18,12,2024-05-22 12:27:00,"ECUADOR, QUITO, ARETINA QUITO DEPOT",NULL,0
926876,EGALX-DES,,,31.081238968768673,29.845611255711475,Cairo - Alexandria Desert Rd,Amreya 1,Alexandria Governorate,5255210,EG,0,1,"31.081239,29.845611,31.080214,29.846692,31.079248,29.845297,31.078604,29.845297,31.077684,29.844469,31.079090,29.843163,31.081239,29.845611",2024-06-27 08:54:00,EGALX-DES,0,,18,12,2024-06-27 08:54:00,"EGYPT, ALEXANDRIA, NEW EASTMED YARD",NULL,0
926780,EGALX-TKH,,,31.142105654661833,29.786637300792222,Al Menaa,Al Gomrok,Alexandria Governorate,5314801,EG,0,1,"31.142106,29.786637,31.144357,29.789357,31.142950,29.790612,31.145610,29.795424,31.143998,29.797695,31.136376,29.791957,31.133818,29.793631,31.132545,29.792503,31.138292,29.785626,31.139816,29.787325,31.142106,29.786637",2024-06-27 08:53:00,EGALX-TKH,0,,18,21,2024-06-27 08:53:00,"EGYPT, ALEXANDRIA, DEKHEILA HUTCHISON",NULL,0
819648,EGDMT-DEM,,,31.441962759625127,31.7636424052574,,Kafr Saad,Damietta Governorate,8035304,EG,0,1,"31.441963,31.763642,31.441117,31.765236,31.439953,31.766041,31.439136,31.766219,31.438420,31.765278,31.438485,31.764456,31.440249,31.762363,31.441008,31.762405,31.441963,31.763642",2024-06-19 06:17:00,EGDMT-DEM,0,,18,12,2024-06-19 06:17:00,"EGYPT, DAMIETTA, EGYPTIAN DAMIETTA DEPOT",NULL,0
183798,EGDMT-TDM,,,31.460448,31.751645,Unnamed Road,Kafr Saad,Damietta Governorate,8062001,EG,0,1,"31.460448,31.751645,31.463483,31.755363,31.450671,31.769763,31.445511,31.764045,31.455154,31.753036,31.457002,31.755470,31.460448,31.751645",2024-04-14 11:00:00,EGDMT-TDM,0,ZIM,18,21,2024-02-20 12:16:00,"EGYPT, DAMIETTA, DAMIETTA TERMINAL",NULL,NULL
142540,ESALG-DOK,,,36.174396984214724,-5.458812284286267,18 Ctra. Jerez-Algeciras,Los Barrios,AN,11379,ES,0,1,"36.174397,-5.458812,36.176071,-5.454904,36.175585,-5.454234,36.172909,-5.456213,36.174397,-5.458812",2024-01-16 08:24:00,ESALG-DOK,0,ZIM,18,12,2024-01-16 08:24:00,"SPAIN, ALGECIRAS. DOCKS LOGISTICS ALGECIRAS",NULL,NULL
137622,ESALG-TPM,,,36.148524419073865,-5.440978382570336,Vía sin nombre,Algeciras,ES,,ES,0,1,"36.148524,-5.440978,36.148312,-5.435600,36.134856,-5.436285,36.133833,-5.442297,36.148524,-5.440978",2024-01-10 10:49:00,ESALG-TPM,0,ZIM,18,21,2024-01-10 10:49:00,"SPAIN, ALGECIRAS, APM TERMINALS ALGECIRAS",NULL,NULL
